[{"name": "Salamanca restaurant", "category": ["Spanish", "Tapas"], "address": "1 St Andrews Street, Dublin 2, City Centre South", "rating": 4, "review_count": 640, "BusinessID": "Dub00001", "latitude": 53.3432998657, "website": "http://www.salamanca.ie/", "city": "Dublin", "longitude": -6.26188516617}, {"name": "l'Ecrivain Restaurant", "category": ["Fine Dining", "French", "Irish", "Wine Bar"], "address": "109a Lower Baggot Street, Dublin 2, City Centre South", "rating": 4, "review_count": 239, "BusinessID": "Dub00002", "latitude": 53.3361701965, "website": "http://www.lecrivain.com", "city": "Dublin", "longitude": -6.24826002121}, {"name": "WJ Kavanaghs Gastro Bar & Restaurant", "category": ["Gastro Pub", "Pub Grub"], "address": "4-5 Dorset Street Lower, City Centre North", "rating": 4, "review_count": 10, "BusinessID": "Dub00003", "latitude": 53.3577423096, "website": "http://www.wjkavanaghsbar.com/", "city": "Dublin", "longitude": -6.26352739334}, {"name": "Good World Chinese Restaurant", "category": ["Asian Fusion", "Chinese", "Sunday Lunch"], "address": "18 South Great Georges Street, Dublin 2 , City Centre South", "rating": 4, "review_count": 183, "BusinessID": "Dub00004", "latitude": 53.3436203003, "website": "http://www.goodworldchinesedublin.com", "city": "Dublin", "longitude": -6.26426696777}, {"name": "The Hairy Lemon Traditional Pub & Restaurant", "category": ["Gastro Pub", "Steak and Seafood", "Traditional Irish"], "address": "Stephen Street Lower, Dublin 2, City Centre South", "rating": 4, "review_count": 81, "BusinessID": "Dub00005", "latitude": 53.3412513733, "website": "  http://www.thehairylemonpubandrestaurantstephenstreetlower.com", "city": "Dublin", "longitude": -6.26379489899}, {"name": "Jewel in the Crown (South William Street) restaurant", "category": ["Indian"], "address": "5 South William Street, Dublin 2, City Centre South", "rating": 4, "review_count": 87, "BusinessID": "Dub00006", "latitude": 53.3413619995, "website": "http://www.jewelinthecrownsouthwilliamstreet.comtreet.com", "city": "Dublin", "longitude": -6.26301193237}, {"name": "The Pantry Restaurant", "category": ["Bistro", "Breakfast", "Cafe"], "address": "64 Talbot Street, City Centre North", "rating": 4, "review_count": 10, "BusinessID": "Dub00007", "latitude": 53.3511772156, "website": "https://www.facebook.com/pages/The-Pantry-on-Talbot-Street/108319629228136/", "city": "Dublin", "longitude": -6.25146770477}, {"name": "Copper Alley Bistro restaurant", "category": ["Bistro", "European"], "address": "No 2 Lord Edward Street, Dublin 2, City Centre South", "rating": 4, "review_count": 12, "BusinessID": "Dub00008", "latitude": 53.343711853, "website": "  http://www.copperalleybistrorestaurantdublin.com", "city": "Dublin", "longitude": -6.26988887787}, {"name": "KC Peaches Wine Cave Nassau St restaurant", "category": ["Girls Night Out", "Tapas", "Wine Bar"], "address": "28-29 Nassau St, Dublin 2, City Centre South", "rating": 4, "review_count": 114, "BusinessID": "Dub00009", "latitude": 53.342628479, "website": "http://kcpeaches.com/index.php/wine-cave/about-the-wine-cave/", "city": "Dublin", "longitude": -6.25727748871}, {"name": "Kathmandu Kitchen Nepalese & Indian Restaurant", "category": ["Indian", "Nepalese"], "address": "18 Dame Street, Dublin 2, City Centre South", "rating": 4, "review_count": 97, "BusinessID": "Dub00010", "latitude": 53.344078064, "website": "http://www.kathmandukitchen.ie/", "city": "Dublin", "longitude": -6.2649641037}, {"name": "Farm Restaurant (Leeson St)", "category": ["Casual Dining", "Organic", "Traditional Irish"], "address": "133 Upper Leeson St, Dublin 4, City Centre South", "rating": 4, "review_count": 26, "BusinessID": "Dub00011", "latitude": 53.3305435181, "website": ")  http://www.farmrestaurantleesonstreet.com", "city": "Dublin", "longitude": -6.25169324875}, {"name": "Toto Ristorante Italiano restaurant", "category": ["Italian", "Pizzeria"], "address": "8 Talbot Street, City Centre North", "rating": 4, "review_count": 27, "BusinessID": "Dub00012", "latitude": 53.350353241, "website": "  http://www.totoristoranteitalianodublin.com", "city": "Dublin", "longitude": -6.25668764114}, {"name": "Green Nineteen restaurant", "category": ["Casual Dining", "Cheap Eats", "European", "Irish"], "address": "19 Lower Camden Street, Dublin 2, Camden Street", "rating": 4, "review_count": 295, "BusinessID": "Dub00013", "latitude": 53.3349494934, "website": "http://www.green19.ie", "city": "Dublin", "longitude": -6.26532888412}, {"name": "Il Primo restaurant", "category": ["Italian", "Mediterranean", "Wine Bar"], "address": "16 Montague Street, Dublin 2 , City Centre South", "rating": 4, "review_count": 121, "BusinessID": "Dub00014", "latitude": 53.3365211487, "website": "http://www.ilprimo.ie/", "city": "Dublin", "longitude": -6.26401996613}, {"name": "Belvedere Irish Nights @ the Belvedere Hotel restaurant", "category": ["Irish"], "address": "Great Denmark Street, City Centre North", "rating": 5, "review_count": 2, "BusinessID": "Dub00015", "latitude": 53.3550758362, "website": "http://www.belvedereirishnight.ie/", "city": "Dublin", "longitude": -6.26238918304}, {"name": "Brasserie Sixty6 restaurant", "category": ["Brasserie", "Steak and Seafood", "Traditional Irish"], "address": "66/67 Great South Georges Street, Dublin 2 , City Centre South", "rating": 4, "review_count": 883, "BusinessID": "Dub00016", "latitude": 53.3426589966, "website": "http://www.brasseriesixty6restaurantdublin.com", "city": "Dublin", "longitude": -6.26463222504}, {"name": "The Larder Restaurant", "category": ["International", "Irish", "Steak and Seafood"], "address": "8 Parliament Street, Dublin 2, City Centre South", "rating": 4, "review_count": 146, "BusinessID": "Dub00017", "latitude": 53.3446769714, "website": "http://www.thelarderrestaurantdublin.com", "city": "Dublin", "longitude": -6.26742124557}, {"name": "Yamamori Noodles restaurant", "category": ["Asian", "Chinese", "Healthy Eating", "Japanese", "Seafood", "Sushi", "Thai", "Vegetarian"], "address": "71-72 South Great Georges Street, Dublin 2, City Centre South", "rating": 4, "review_count": 530, "BusinessID": "Dub00018", "latitude": 53.342880249, "website": "www.yamamori.ie", "city": "Dublin", "longitude": -6.26451349258}, {"name": "Le Bon Crubeen restaurant", "category": ["Brasserie", "Coeliac options", "French", "Healthy Eating"], "address": "81-82 Talbot Street, Dublin 1, City Centre North", "rating": 4, "review_count": 362, "BusinessID": "Dub00019", "latitude": 53.3505363464, "website": "http://www.leboncrubeen.ie/", "city": "Dublin", "longitude": -6.25526571274}, {"name": "Boteco Brazil restaurant", "category": ["Brazilian", "Wine Bar"], "address": "6 Ormond Quay Upper, Dublin 7 , City Centre North", "rating": 3, "review_count": 13, "BusinessID": "Dub00020", "latitude": 53.3461952209, "website": "http://www.botecobrazildublin.com", "city": "Dublin", "longitude": -6.26874923706}, {"name": "Il Caffe di Napoli restaurant", "category": ["Cafe", "Italian", "Pizzeria"], "address": "41 Westland Row, Dublin 2, City Centre South", "rating": 4, "review_count": 60, "BusinessID": "Dub00021", "latitude": 53.3426933289, "website": "http://www.napoli.ie/", "city": "Dublin", "longitude": -6.25002527237}, {"name": "Zaragoza restaurant", "category": ["Spanish", "Tapas"], "address": "South William St., Dublin , City Centre South", "rating": 4, "review_count": 59, "BusinessID": "Dub00022", "latitude": 53.3421897888, "website": "http://www.zaragozasouthwilliamstreet.com", "city": "Dublin", "longitude": -6.26253461838}, {"name": "Bagots Hutton Wine Emporium restaurant", "category": ["Casual Dining", "Girls Night Out", "Wine Bar"], "address": "The Basement, 28 South William Street, Dublin 2, City Centre South", "rating": 4, "review_count": 14, "BusinessID": "Dub00023", "latitude": 53.3413391113, "website": "  http://www.bagotshuttonwineemporiumdublin.com", "city": "Dublin", "longitude": -6.26322221756}, {"name": "Il Fornaio Restaurant (IFSC)", "category": ["Italian", "Organic", "Wine Bar"], "address": "1B Valenta House, Custom House Square, Dublin 1, City Centre, IFSC", "rating": 4, "review_count": 34, "BusinessID": "Dub00024", "latitude": 53.3479499817, "website": "http://www.ilfornaio.ie", "city": "Dublin", "longitude": -6.24501943588}, {"name": "Cafe en Seine restaurant", "category": ["Cafe", "Cocktails", "Gastro Pub"], "address": "39 Dawson Street, Dublin 2, Dawson Street", "rating": 4, "review_count": 110, "BusinessID": "Dub00025", "latitude": 53.3404312134, "website": "http://www.cafeenseine.ie/", "city": "Dublin", "longitude": -6.25868797302}, {"name": "Chai Yo Teppanyaki restaurant", "category": ["Asian Fusion", "Girls Night Out", "Sushi"], "address": "100 Lower Baggot Street, Dublin 2, City Centre South", "rating": 4, "review_count": 275, "BusinessID": "Dub00026", "latitude": 53.3355407715, "website": "  http://www.chaiyosasianrestaurantdublin.com/", "city": "Dublin", "longitude": -6.24774503708}, {"name": "Musashi Noodles and Sushi (IFSC) restaurant", "category": ["Asian", "Japanese", "Sushi"], "address": "Unit 2 Burton Hall, Custom House Square, Mayor St, City Centre North", "rating": 4, "review_count": 5, "BusinessID": "Dub00027", "latitude": 53.3496704102, "website": "http://musashidublin.com/", "city": "Dublin", "longitude": -6.24355077744}, {"name": "Fade Street Social - The GastroBar restaurant", "category": ["Cocktails", "Coeliac options", "Fish", "Gastro Pub", "International", "Tapas", "Vegetarian"], "address": "4-6 Fade Street, Dublin 2 , City Centre South", "rating": 4, "review_count": 111, "BusinessID": "Dub00028", "latitude": 53.3419036865, "website": "http://www.fadestreetsocialgastrobardublin.com", "city": "Dublin", "longitude": -6.26383495331}, {"name": "The Woolshed Baa & Grill restaurant", "category": ["American", "Cheap Eats", "Pub Grub"], "address": "Parnell Street, The junction of Jervis street and Parnell street., City Centre North", "rating": 4, "review_count": 60, "BusinessID": "Dub00029", "latitude": 53.3497428894, "website": "http://woolshedbaa.com/dublin", "city": "Dublin", "longitude": -6.26879453659}, {"name": "Quay 16 Restaurant @ MV Cill Airne", "category": ["European", "Gastro Pub"], "address": "MV Cill Airne, North Wall Quay, IFSC", "rating": 4, "review_count": 78, "BusinessID": "Dub00030", "latitude": 53.3472480774, "website": "http://www.mvcillairne.com/", "city": "Dublin", "longitude": -6.23557710648}, {"name": "Trocadero restaurant", "category": ["European", "Fine Dining", "Irish"], "address": "St Andrew Street, Dublin 2, City Centre South", "rating": 4, "review_count": 319, "BusinessID": "Dub00031", "latitude": 53.34375, "website": "http://www.trocadero.ie/", "city": "Dublin", "longitude": -6.26063013077}, {"name": "Taste of Emilia restaurant", "category": ["Delicatessen", "Italian", "Tapas", "Wine Bar"], "address": "No. 1 Lower Liffey Street, City Centre North", "rating": 5, "review_count": 51, "BusinessID": "Dub00032", "latitude": 53.3472938538, "website": "", "city": "Dublin", "longitude": -6.26342105865}, {"name": "Yamamori Izakaya  restaurant", "category": ["Asian Fusion", "Chinese", "Japanese", "Sushi"], "address": "12/13 South Great Georges Street, Dublin 2, City Centre South", "rating": 4, "review_count": 51, "BusinessID": "Dub00033", "latitude": 53.3432617188, "website": "www.yamamori.ie", "city": "Dublin", "longitude": -6.26430988312}, {"name": "1900 Restaurant & Bar", "category": ["Bistro", "Irish", "Tapas"], "address": "59 Harcourt Street, Dublin 2 , City Centre South", "rating": 5, "review_count": 9, "BusinessID": "Dub00034", "latitude": 53.3343238831, "website": "http://www.1900.ie/", "city": "Dublin", "longitude": -6.26290512085}, {"name": "Lincoln's Inn restaurant", "category": ["Cheap Eats", "Gastro Pub", "Pub Grub"], "address": "18-19 Lincoln Place, D2, City Centre South", "rating": 4, "review_count": 25, "BusinessID": "Dub00035", "latitude": 53.3420410156, "website": "https://www.facebook.com/Lincolnsinn1", "city": "Dublin", "longitude": -6.25156402588}, {"name": "Viva restaurant", "category": ["Brunch", "Cafe", "Casual Dining", "Coeliac options", "Fish", "Girls Night Out", "Mediterranean", "Spanish", "Tapas", "Vegetarian", "Wine Bar"], "address": "27 South Richmond Street, Portobello, City Centre South", "rating": 4, "review_count": 12, "BusinessID": "Dub00036", "latitude": 53.3307952881, "website": "http://www.vivarestaurantdublin.com ", "city": "Dublin", "longitude": -6.2642250061}, {"name": "Brasserie 7 restaurant", "category": ["Brasserie", "European", "Irish", "Seafood", "Steak"], "address": "The Capel Building, Capel Street, Dublin 1, City Centre North", "rating": 4, "review_count": 299, "BusinessID": "Dub00037", "latitude": 53.3469314575, "website": "http://www.brasserie7.com", "city": "Dublin", "longitude": -6.26918029785}, {"name": "Boulevard Cafe restaurant", "category": ["European", "Girls Night Out", "Mediterranean"], "address": "27 Exchequer Street, Dublin 2 , City Centre South", "rating": 4, "review_count": 389, "BusinessID": "Dub00038", "latitude": 53.3430786133, "website": "http://www.boulevardcafe.ie", "city": "Dublin", "longitude": -6.26249694824}, {"name": "The Cedar Tree restaurant", "category": ["Ethnic", "Falafel", "Lebanese"], "address": "11a St Andrews Street, Dublin 2, City Centre South", "rating": 4, "review_count": 250, "BusinessID": "Dub00039", "latitude": 53.3437156677, "website": "http://www.cedartree.ie", "city": "Dublin", "longitude": -6.26081228256}, {"name": "Falafel Lounge & Veg Bar restaurant", "category": ["Ethnic", "Falafel", "Lebanese"], "address": "68 Dame st, Dublin 2, City Centre South", "rating": 4, "review_count": 6, "BusinessID": "Dub00040", "latitude": 53.3443603516, "website": "http://falafellounge.wix.com/vegbar", "city": "Dublin", "longitude": -6.26574134827}, {"name": "J.W Sweetman restaurant", "category": ["Gastro Pub", "Pub Grub", "Traditional Irish"], "address": "1-2 Burgh Quay, Dublin 2, City Centre South", "rating": 5, "review_count": 3, "BusinessID": "Dub00041", "latitude": 53.347278595, "website": "http://www.jwsweetman.ie/index.html", "city": "Dublin", "longitude": -6.25649690628}, {"name": "Brasserie Le Pont restaurant", "category": ["Breakfast", "French", "Steak and Seafood"], "address": "26 Fitzwilliam Place, Dublin 2, City Centre South", "rating": 4, "review_count": 46, "BusinessID": "Dub00042", "latitude": 53.332611084, "website": "http://www.brasserielepont.com", "city": "Dublin", "longitude": -6.253262043}, {"name": "The Pembroke restaurant", "category": ["Cocktails", "European", "Gastro Pub"], "address": "23 Pembroke Street Upper, Dublin 2, City Centre South", "rating": 4, "review_count": 1, "BusinessID": "Dub00043", "latitude": 53.3347740173, "website": "https://www.facebook.com/PedalPushingMonkey/", "city": "Dublin", "longitude": -6.25460863113}, {"name": "Fujiyama restaurant", "category": ["Healthy Eating", "Japanese", "Sushi"], "address": "11/11a O'Connell St (Above Peter Mark), O'Connell St", "rating": 4, "review_count": 16, "BusinessID": "Dub00044", "latitude": 53.3473396301, "website": "http://www.fujiyama.ie/ ", "city": "Dublin", "longitude": -6.25902223587}, {"name": "Zaytoon (Lower Camden Street) restaurant", "category": ["Casual Dining", "Cheap Eats", "Persian"], "address": "44-55 Lower Camden Street, Dublin 2, Camden Street", "rating": 4, "review_count": 120, "BusinessID": "Dub00045", "latitude": 53.3340911865, "website": "http://www.zaytoon.ie/restaurants.asp", "city": "Dublin", "longitude": -6.26514720917}, {"name": "Cactus Jacks (Middle Abbey St) restaurant", "category": ["Cheap Eats", "Mexican", "Spanish", "Tex Mex"], "address": "Millennium Walkway, Middle Abbey Street, Italian Quarter", "rating": 4, "review_count": 445, "BusinessID": "Dub00046", "latitude": 53.3470726013, "website": "http://www.cactusjacksdublin.com", "city": "Dublin", "longitude": -6.26515769958}, {"name": "Marco Pierre White Steakhouse & Grill restaurant", "category": ["Steak", "Steak and Seafood"], "address": "51 Dawson Street, Dublin 2, Dawson Street", "rating": 4, "review_count": 219, "BusinessID": "Dub00047", "latitude": 53.3415107727, "website": "http://marcopierrewhite.ie/", "city": "Dublin", "longitude": -6.25827980042}, {"name": "Cafe Topolis restaurant", "category": ["Cheap Eats", "Italian", "Kid's Menu"], "address": "37 Parliament Street, Temple Bar, Dublin 2, City Centre South", "rating": 4, "review_count": 229, "BusinessID": "Dub00048", "latitude": 53.3445510864, "website": "", "city": "Dublin", "longitude": -6.26750707626}, {"name": "Gallahers Bistro restaurant", "category": ["Bistro", "BYOB", "Healthy Eating", "Wine Bar"], "address": "16A D'Olier Street, Dublin 2, City Centre South", "rating": 4, "review_count": 53, "BusinessID": "Dub00049", "latitude": 53.3459320068, "website": "http://www.gallahersbistro.com/", "city": "Dublin", "longitude": -6.25729846954}, {"name": "Yamamori Sushi restaurant", "category": ["Asian", "Japanese", "Seafood", "Sunday Lunch", "Sushi"], "address": "38-39 Lower Ormond Quay, Dublin 1, City Centre North", "rating": 4, "review_count": 483, "BusinessID": "Dub00050", "latitude": 53.3465690613, "website": "www.yamamori.ie", "city": "Dublin", "longitude": -6.2637090683}, {"name": "The Blackboard Bistro restaurant", "category": ["Bistro", "Cheap Eats", "European", "French", "Girls Night Out", "Irish"], "address": "The Basement, 4 Clare Street, Dublin 2, City Centre South", "rating": 4, "review_count": 99, "BusinessID": "Dub00051", "latitude": 53.3414611816, "website": "http://www.theblackboardbistrodublin.com", "city": "Dublin", "longitude": -6.25152111053}, {"name": "The Dawson Brasserie restaurant", "category": ["Brasserie", "French"], "address": "35 Dawson Street, Dublin 2, City Centre South", "rating": 4, "review_count": 5, "BusinessID": "Dub00052", "latitude": 0.0, "website": "  http://www.thedawsonbrasseriedublin.com", "city": "Dublin", "longitude": 0.0}, {"name": "Pasta Fresca restaurant", "category": ["Cafe", "Casual Dining", "Cocktails", "Coeliac options", "Girls Night Out", "Healthy Eating", "Italian", "Mediterranean", "Pizzeria", "Seafood", "Steak", "Steak and Seafood", "Sunday Lunch", "Vegetarian"], "address": "2-4 Chatham Street, Dublin 2, City Centre South", "rating": 3, "review_count": 75, "BusinessID": "Dub00053", "latitude": 53.3408660889, "website": "http://www.pastafresca.ie", "city": "Dublin", "longitude": -6.26165390015}, {"name": "Toddys Bar & Brasserie @ The Gresham Hotel restaurant", "category": ["Brasserie", "Irish"], "address": "O'Connell Street, O'Connell St", "rating": 4, "review_count": 11, "BusinessID": "Dub00054", "latitude": 53.3504180908, "website": "http://www.gresham-hotels-dublin.com/dining-toddys-bar-brasserie.html", "city": "Dublin", "longitude": -6.26068305969}, {"name": "Jimmy Chungs restaurant", "category": ["Cheap Eats", "Chinese"], "address": "Eden Quay, City Centre North", "rating": 4, "review_count": 168, "BusinessID": "Dub00055", "latitude": 53.3480682373, "website": "http://www.jimmychungsdublin.com", "city": "Dublin", "longitude": -6.25718593597}, {"name": "Morrison Grill restaurant", "category": ["Breakfast", "European", "International", "Steak"], "address": "The Morrison, Ormond Quay, Dublin 1, City Centre North", "rating": 3, "review_count": 13, "BusinessID": "Dub00056", "latitude": 0.0, "website": "http://www.morrisonhotel.ie/", "city": "Dublin", "longitude": 0.0}, {"name": "ely bar & brasserie restaurant", "category": ["Brasserie", "Casual Dining", "Coeliac options", "European", "Fine Dining", "Girls Night Out", "Healthy Eating", "Irish", "Kid's Menu", "Organic", "Seafood", "Steak", "Wine Bar"], "address": "CHQ Building, Georges Dock, Dublin 1, City Centre, IFSC", "rating": 4, "review_count": 179, "BusinessID": "Dub00057", "latitude": 53.349105835, "website": "http://www.elywinebar.ie", "city": "Dublin", "longitude": -6.24840974808}, {"name": "The Counter Suffolk Street restaurant", "category": ["American", "Casual Dining", "Fast Food", "Gourmet Burger"], "address": "20 Suffolk Street, City Centre South", "rating": 4, "review_count": 50, "BusinessID": "Dub00058", "latitude": 53.3436508179, "website": "http://www.thecounterburger.com", "city": "Dublin", "longitude": -6.26044273376}, {"name": "Umi Falafel restaurant", "category": ["Falafel", "Lebanese", "Vegetarian"], "address": "13 Dame Street, Dublin 2, City Centre South", "rating": 5, "review_count": 22, "BusinessID": "Dub00059", "latitude": 53.3441314697, "website": "http://umifalafel.ie/", "city": "Dublin", "longitude": -6.26719284058}, {"name": "Nico's Restaurant", "category": ["European", "Italian", "Mediterranean"], "address": "53 Dame Street, Dublin, City Centre South", "rating": 4, "review_count": 60, "BusinessID": "Dub00060", "latitude": 53.3441963196, "website": "http://www.nicosrestaurantdamestreet.com/", "city": "Dublin", "longitude": -6.26414442062}, {"name": "Dobbins Restaurant", "category": ["European", "Fine Dining", "Seafood", "Traditional Irish"], "address": "15 Stephen Lane, Dublin 2, City Centre South", "rating": 4, "review_count": 452, "BusinessID": "Dub00061", "latitude": 53.3380584717, "website": "http://www.dobbins.ie", "city": "Dublin", "longitude": -6.2444190979}, {"name": "Alladins Cafe and Restaurant", "category": ["Falafel", "Greek", "Halal", "Lebanese"], "address": "129 Upper Leeson Street, Dublin 4, City Centre South", "rating": 4, "review_count": 26, "BusinessID": "Dub00062", "latitude": 53.3303642273, "website": "http://www.alladinscafeandrestaurantdublin.com", "city": "Dublin", "longitude": -6.25151443481}, {"name": "Pyg Restaurant", "category": ["European", "Mexican", "Tapas"], "address": "Powerscourt Townhouse Centre, South William Street, Dublin 2 , City Centre South", "rating": 4, "review_count": 44, "BusinessID": "Dub00063", "latitude": 53.3421897888, "website": "http://www.pygrestaurantsouthwilliamstreet.com", "city": "Dublin", "longitude": -6.26253461838}, {"name": "Ichiman Japanese & Thai Restaurant (Lower Liffey Street)", "category": ["Japanese", "Sushi", "Thai"], "address": "20 Lower Liffey Street, City Centre North", "rating": 4, "review_count": 38, "BusinessID": "Dub00064", "latitude": 53.3477706909, "website": "https://www.facebook.com/pages/Ichiman-Japanese-Restaurant/313118432209611?fref=ts", "city": "Dublin", "longitude": -6.2636013031}, {"name": "Opium restaurant", "category": ["Asian Fusion", "Thai", "Vegetarian", "Vietnamese"], "address": "26 Wexford St, Dublin 2, City Centre South", "rating": 4, "review_count": 28, "BusinessID": "Dub00065", "latitude": 53.3366737366, "website": "http://www.opiumrestaurantdublin.com ", "city": "Dublin", "longitude": -6.26573514938}, {"name": "Frite Haus restaurant", "category": ["Casual Dining", "Cheap Eats", "European"], "address": "87 Camden St, Camden Street", "rating": 4, "review_count": 22, "BusinessID": "Dub00066", "latitude": 53.3360748291, "website": "http://www.fritehausdublin.com", "city": "Dublin", "longitude": -6.26550865173}, {"name": "Spice of India restaurant", "category": ["Indian"], "address": "6 South William Street, Dublin 2, City Centre South", "rating": 4, "review_count": 28, "BusinessID": "Dub00067", "latitude": 53.3427505493, "website": "http://spiceofindiad2.weebly.com/", "city": "Dublin", "longitude": -6.26219129562}, {"name": "Hop House / Kimchi restaurant", "category": ["Asian", "Japanese", "Korean"], "address": "160 Parnell Street, Dublin 1, City Centre North", "rating": 4, "review_count": 84, "BusinessID": "Dub00068", "latitude": 53.3530578613, "website": "http://hophouse.ie/", "city": "Dublin", "longitude": -6.26083040237}, {"name": "Jerusalem Restaurant", "category": ["BYOB", "Falafel", "Lebanese"], "address": "77 Camden Street Lwr., Dublin 2, Camden Street", "rating": 4, "review_count": 104, "BusinessID": "Dub00069", "latitude": 53.3353767395, "website": "http://www.jerusalem.ie", "city": "Dublin", "longitude": -6.26545715332}, {"name": "Koh restaurant", "category": ["Asian Fusion", "Chinese", "Thai", "Vietnamese"], "address": "6-7 Jervis Street, Millennium Walkway, Dublin 1, City Centre, Italian Quarter", "rating": 4, "review_count": 506, "BusinessID": "Dub00070", "latitude": 53.3474807739, "website": "http://www.koh.ie", "city": "Dublin", "longitude": -6.26527500153}, {"name": "The Market Bar restaurant", "category": ["Gastro Pub", "Spanish", "Tapas"], "address": "Fade Street, City Centre South", "rating": 4, "review_count": 335, "BusinessID": "Dub00071", "latitude": 53.3420295715, "website": "http://www.marketbar.ie/", "city": "Dublin", "longitude": -6.26443910599}, {"name": "Taste of Everest restaurant", "category": ["Cheap Eats", "Ethnic", "Indian"], "address": "17a Lower Baggot St, Dublin 2, City Centre South", "rating": 4, "review_count": 44, "BusinessID": "Dub00072", "latitude": 53.3369979858, "website": "http://www.tasteofeverestdublin.com", "city": "Dublin", "longitude": -6.24976158142}, {"name": "Bobo's Gourmet Burgers (Wexford St) restaurant", "category": ["American", "Casual Dining", "Fast Food", "Fish", "Gourmet Burger", "Kid's Menu"], "address": "22 Wexford Street (Beside Whelans), Dublin 2, City Centre South", "rating": 4, "review_count": 120, "BusinessID": "Dub00073", "latitude": 53.3367652893, "website": "http://www.bobos.ie/", "city": "Dublin", "longitude": -6.26572608948}, {"name": "Whitefriar Grill restaurant", "category": ["Brunch", "Seafood", "Steak"], "address": "16 Aungier Street, Dublin 2 , City Centre South", "rating": 4, "review_count": 95, "BusinessID": "Dub00074", "latitude": 53.3403663635, "website": "www.whitefriargrill.ie", "city": "Dublin", "longitude": -6.26556682587}, {"name": "The Kingfisher Restaurant, Guesthouse & Apartments", "category": ["Fish & Chips", "Seafood", "Traditional Irish"], "address": "166 Parnell Street, City Centre North", "rating": 4, "review_count": 43, "BusinessID": "Dub00075", "latitude": 53.3508491516, "website": "http://www.kingfisherdublin.com/", "city": "Dublin", "longitude": -6.26555395126}, {"name": "Murrays Bar & Grill restaurant", "category": ["Pub Grub"], "address": "33-34 O'Connell St Upper, O'Connell St", "rating": 4, "review_count": 3, "BusinessID": "Dub00076", "latitude": 0.0, "website": "http://www.murraysbar.eu/", "city": "Dublin", "longitude": 0.0}, {"name": "Buenos Aires Grill restaurant", "category": ["Argentinean", "Coeliac options", "Steak and Seafood"], "address": "Unit 2 Castle Way, Golden Lane, Dublin 2, City Centre South", "rating": 4, "review_count": 393, "BusinessID": "Dub00077", "latitude": 53.3409194946, "website": "http://www.buenosairesgrilldublin.com", "city": "Dublin", "longitude": -6.26734113693}, {"name": "Farm Restaurant (Dawson Street)", "category": ["Casual Dining", "European", "Organic", "Steak", "Traditional Irish"], "address": "3 Dawson Street, Dublin 2, Dawson Street", "rating": 4, "review_count": 421, "BusinessID": "Dub00078", "latitude": 53.3424911499, "website": "http://www.farmrestaurantdawson.com", "city": "Dublin", "longitude": -6.25776481628}, {"name": "Ambala restaurant", "category": ["Breakfast", "Halal", "Indian"], "address": "11 Upper Camden Street, Dublin 2, Camden Street", "rating": 4, "review_count": 54, "BusinessID": "Dub00079", "latitude": 53.332824707, "website": "http://www.ambala.com", "city": "Dublin", "longitude": -6.26508331299}, {"name": "Millers Pizza Kitchens restaurant", "category": ["Italian", "Pizzeria"], "address": "50 Upper Baggot Street, Dublin 4, City Centre South", "rating": 4, "review_count": 209, "BusinessID": "Dub00080", "latitude": 53.3332901001, "website": "http://www.millerspizzakitchen.com", "city": "Dublin", "longitude": -6.24350690842}, {"name": "Broadway Pizza Parlor restaurant", "category": ["American", "Casual Dining", "Cheap Eats", "Italian", "Pizzeria", "Vegetarian"], "address": "Unit 6, Custom House Square IFSC, IFSC", "rating": 4, "review_count": 41, "BusinessID": "Dub00081", "latitude": 53.3494186401, "website": "  http://www.broadwaypizzaparlordublin.com", "city": "Dublin", "longitude": -6.24514818192}, {"name": "Davy Byrnes restaurant", "category": ["Cheap Eats", "Gastro Pub", "Seafood"], "address": "21 Duke Street, City Centre South", "rating": 4, "review_count": 29, "BusinessID": "Dub00082", "latitude": 53.3419189453, "website": "http://www.davybyrnes.com", "city": "Dublin", "longitude": -6.25954580307}, {"name": "Boojum restaurant", "category": ["Casual Dining", "Cheap Eats", "Mexican", "Vegetarian"], "address": "Millennium Walkway, Dublin 1, Italian Quarter", "rating": 5, "review_count": 77, "BusinessID": "Dub00083", "latitude": 53.346912384, "website": "http://www.boojummex.com", "city": "Dublin", "longitude": -6.26594495773}, {"name": "Hungry Mexican Restaurant @ Bodkins Bar", "category": ["Mexican"], "address": "Bodkins Bar, 57 Bolton Street, City Centre North", "rating": 4, "review_count": 82, "BusinessID": "Dub00084", "latitude": 53.3513298035, "website": "http://www.hungrymexicanrestaurantdublin.com ", "city": "Dublin", "longitude": -6.27006244659}, {"name": "Cucina (Dublin) restaurant", "category": ["Italian", "Pizzeria"], "address": "Unit 9A, Kings Court, Parnell Street, City Centre North", "rating": 4, "review_count": 48, "BusinessID": "Dub00085", "latitude": 53.3519096375, "website": "http://www.cucinarestaurantdublin.com", "city": "Dublin", "longitude": -6.26307296753}, {"name": "Citron @ Fitzwilliam Hotel restaurant", "category": ["European", "Mediterranean", "Seafood"], "address": "The Fitzwilliam Hotel, St Stephen's Green, Dublin 2, City Centre South", "rating": 4, "review_count": 190, "BusinessID": "Dub00086", "latitude": 53.3393592834, "website": "http://www.citron.ie", "city": "Dublin", "longitude": -6.26128387451}, {"name": "3Sixty5 African Restaurant", "category": ["African", "International"], "address": "15/16 Sampson Lane (beside Henry Street), Dublin 1, City Centre North", "rating": 0, "review_count": 0, "BusinessID": "Dub00087", "latitude": 53.3499908447, "website": "  http://www.3sixty5africanrestaurantdublin.com", "city": "Dublin", "longitude": -6.26270198822}, {"name": "ely winebar restaurant", "category": ["Bistro", "Casual Dining", "Steak and Seafood", "Wine Bar"], "address": "22 Ely Place, (Just off St. Stephen\u2019s Green), Dublin 2, City Centre South", "rating": 4, "review_count": 151, "BusinessID": "Dub00088", "latitude": 53.3379440308, "website": "http://www.elywinebar.ie", "city": "Dublin", "longitude": -6.25375270844}, {"name": "PHX Bistro restaurant", "category": ["Bistro", "Irish"], "address": "12 Ellis Quay, Ellis House, Smithfield, Dublin 7, City Centre North", "rating": 4, "review_count": 70, "BusinessID": "Dub00089", "latitude": 53.3467903137, "website": "http://www.phxbistro.com/", "city": "Dublin", "longitude": -6.28190517426}, {"name": "Banyi Japanese Dining restaurant", "category": ["Japanese", "Steak and Seafood", "Sushi"], "address": "4 Bedford Row, Temple Bar, Dublin 2, City Centre South", "rating": 4, "review_count": 44, "BusinessID": "Dub00090", "latitude": 53.3459091187, "website": "http://www.banyijapanesediningdublin.com", "city": "Dublin", "longitude": -6.26195812225}, {"name": "El Bahia Moroccan Restaurant", "category": ["Moroccan"], "address": "37 Wicklow Street, Dublin 2, City Centre South", "rating": 4, "review_count": 230, "BusinessID": "Dub00091", "latitude": 53.3427009583, "website": "http://www.elbahia.com", "city": "Dublin", "longitude": -6.26082277298}, {"name": "Zaytoon (Parliament Street) restaurant", "category": ["Casual Dining", "Cheap Eats", "Persian"], "address": "14/15 Parliament Street, Temple Bar, Dublin 2, City Centre South", "rating": 4, "review_count": 173, "BusinessID": "Dub00092", "latitude": 53.3448295593, "website": "http://www.zaytoon.ie/restaurants.asp", "city": "Dublin", "longitude": -6.26735687256}, {"name": "The Odeon restaurant", "category": ["European", "Gastro Pub"], "address": "57 Old Harcourt Street Railway Station, Harcourt Street, Dublin 2, Harcourt St", "rating": 5, "review_count": 3, "BusinessID": "Dub00093", "latitude": 53.3335113525, "website": "http://www.theodeondublin.com", "city": "Dublin", "longitude": -6.26263618469}, {"name": "Rustic Stone restaurant", "category": ["European", "Organic", "Steak and Seafood"], "address": "South George's Street, Dublin, City Centre South", "rating": 4, "review_count": 402, "BusinessID": "Dub00094", "latitude": 53.3429489136, "website": "http://www.rusticstone.ie/", "city": "Dublin", "longitude": -6.26442289352}, {"name": "101 Talbot restaurant", "category": ["Casual Dining", "European", "Vegetarian"], "address": "Talbot Street, Dublin 1, City Centre North", "rating": 4, "review_count": 280, "BusinessID": "Dub00095", "latitude": 53.3507003784, "website": "http://www.101talbotrestaurantdublin.com", "city": "Dublin", "longitude": -6.25564098358}, {"name": "Millstone, A Dublin Restaurant", "category": ["Casual Dining", "Girls Night Out", "Irish", "Steak and Seafood"], "address": "39 Dame Street, Dublin 2, City Centre South", "rating": 4, "review_count": 336, "BusinessID": "Dub00096", "latitude": 53.3441505432, "website": "http://www.millstonerestaurant.ie", "city": "Dublin", "longitude": -6.26278591156}, {"name": "Diwali Indian Restaurant", "category": ["Indian", "Nepalese", "Vegetarian"], "address": "Unit 1, Castle House, South Great Georges Street, Dublin 2, City Centre South", "rating": 4, "review_count": 105, "BusinessID": "Dub00097", "latitude": 53.3415718079, "website": "http://www.diwaliindianrestaurantsouthgreatgeorgesstreet.com", "city": "Dublin", "longitude": -6.26527500153}, {"name": "La Peniche @ RIASC restaurant", "category": ["European", "French", "Irish"], "address": "Barge Riasc, Mespil Road Jetty, Dublin 2, City Centre South", "rating": 4, "review_count": 78, "BusinessID": "Dub00098", "latitude": 53.3329734802, "website": "http://www.lapeniche.ie/", "city": "Dublin", "longitude": -6.24874401093}, {"name": "Diep le Shaker restaurant", "category": ["Asian Fusion", "Girls Night Out", "Thai"], "address": "55 Pembroke Lane, (Off Pembroke Street), Dublin 2, City Centre South", "rating": 4, "review_count": 352, "BusinessID": "Dub00099", "latitude": 53.336605072, "website": "http://www.diepleshaker.com", "city": "Dublin", "longitude": -6.25161743164}, {"name": "Damascus Gate restaurant", "category": ["Falafel", "Lebanese", "Vegetarian"], "address": "10 Upper Camden Street, Dublin 2, Camden Street", "rating": 4, "review_count": 165, "BusinessID": "Dub00100", "latitude": 53.3328895569, "website": "http://damascusgate.ie/", "city": "Dublin", "longitude": -6.26514577866}, {"name": "La Cave restaurant", "category": ["European", "French", "Wine Bar"], "address": "28 South Anne Street, Dublin 2, City Centre South", "rating": 4, "review_count": 108, "BusinessID": "Dub00101", "latitude": 53.3410720825, "website": "http://www.lacavedublin.com", "city": "Dublin", "longitude": -6.25942850113}, {"name": "Unicorn Restaurant", "category": ["Fine Dining", "Italian", "Mediterranean"], "address": "12b Merrion Court, Merrion Row, Dublin, City Centre South", "rating": 4, "review_count": 15, "BusinessID": "Dub00102", "latitude": 53.3384971619, "website": "http://www.unicornrestaurantdublin.com", "city": "Dublin", "longitude": -6.25493192673}, {"name": "Darwins restaurant", "category": ["Coeliac options", "International", "Steak", "Steak and Seafood"], "address": "80 Aungier Street, Dublin 2, City Centre South", "rating": 4, "review_count": 286, "BusinessID": "Dub00103", "latitude": 53.3400688171, "website": "http://www.darwins.ie/", "city": "Dublin", "longitude": -6.26559686661}, {"name": "Taste Food Company restaurant", "category": ["Bistro", "Cafe", "Casual Dining"], "address": "South William Street, Dublin 2, City Centre South", "rating": 4, "review_count": 51, "BusinessID": "Dub00104", "latitude": 53.3410491943, "website": "http://www.tastecatering.ie", "city": "Dublin", "longitude": -6.26330089569}, {"name": "Fade Street Social - The Restaurant", "category": ["European", "Healthy Eating", "Irish", "Organic", "Seafood", "Vegetarian"], "address": "Drury Street , City Centre South", "rating": 4, "review_count": 42, "BusinessID": "Dub00105", "latitude": 53.3418312073, "website": "http://www.fadestreetsocialrestaurantdublin.com", "city": "Dublin", "longitude": -6.26384067535}, {"name": "Camden Kitchen restaurant", "category": ["Brunch", "Casual Dining", "Healthy Eating"], "address": "3A Camden Market, Grantham Street, Dublin 2, Camden Street", "rating": 4, "review_count": 38, "BusinessID": "Dub00106", "latitude": 53.3344421387, "website": "http://www.camdenkitchengranthamst.com ", "city": "Dublin", "longitude": -6.26527547836}, {"name": "Thai Spice restaurant", "category": ["Thai"], "address": "3A Talbot Place, Dublin 1 , City Centre North", "rating": 4, "review_count": 260, "BusinessID": "Dub00107", "latitude": 53.3506393433, "website": "http://www.thaispice.ie", "city": "Dublin", "longitude": -6.25158500671}, {"name": "Mourne Seafood Bar restaurant", "category": ["Seafood"], "address": "Millennium Tower, Charlotte Quay, Dublin City Centre, IFSC", "rating": 4, "review_count": 6, "BusinessID": "Dub00108", "latitude": 53.3428421021, "website": "http://mourneseafood.com/", "city": "Dublin", "longitude": -6.23691940308}, {"name": "Camden Rotisserie restaurant", "category": ["BBQ", "Delicatessen", "Irish"], "address": "37 Camden Street Lower, Dublin 2, Camden Street", "rating": 4, "review_count": 24, "BusinessID": "Dub00109", "latitude": 53.3343963623, "website": "http://www.camdenrotisseriedublin.com", "city": "Dublin", "longitude": -6.26511096954}, {"name": "La Maison restaurant", "category": ["French", "Steak and Seafood", "Sunday Lunch"], "address": "15 Castle Market Street, Dublin 2, City Centre South", "rating": 4, "review_count": 149, "BusinessID": "Dub00110", "latitude": 53.342338562, "website": "http://www.lamaisonrestaurant.ie/", "city": "Dublin", "longitude": -6.26283502579}, {"name": "Surma restaurant", "category": ["Cheap Eats", "Indian"], "address": "43 Lower Camden Street, Dublin 2, Camden Street", "rating": 4, "review_count": 63, "BusinessID": "Dub00111", "latitude": 53.3344917297, "website": "http://www.surmarestaurantdublin.com", "city": "Dublin", "longitude": -6.26514720917}, {"name": "Cliff Townhouse restaurant", "category": ["Fine Dining", "Irish", "Steak and Seafood"], "address": "22 St Stephens Green, Dublin 2, City Centre South", "rating": 4, "review_count": 51, "BusinessID": "Dub00112", "latitude": 53.339225769, "website": "http://theclifftownhouse.com/", "city": "Dublin", "longitude": -6.26096248627}, {"name": "San Lorenzos restaurant", "category": ["European", "Tapas"], "address": "South Great Georges Street, Dublin, City Centre South", "rating": 4, "review_count": 54, "BusinessID": "Dub00113", "latitude": 0.0, "website": "http://www.sanlorenzos.ie/", "city": "Dublin", "longitude": 0.0}, {"name": "Aussie BBQ restaurant", "category": ["BBQ", "Casual Dining"], "address": "5 South Richmond Street, Dublin 2 , City Centre South", "rating": 4, "review_count": 37, "BusinessID": "Dub00114", "latitude": 53.332244873, "website": "http://www.aussiebbqrestaurantdublin.com", "city": "Dublin", "longitude": -6.26428508759}, {"name": "The Terrace Restaurant @ NCH", "category": ["Coeliac options", "Fine Dining", "Irish"], "address": "National Concert Hall, Earlsfort Terrace, Dublin 2, City Centre South", "rating": 4, "review_count": 16, "BusinessID": "Dub00115", "latitude": 53.3347206116, "website": "  http://www.theterracerestaurantatthenationalconcerthall.com", "city": "Dublin", "longitude": -6.25791501999}, {"name": "Kavanagh's the Temple  restaurant", "category": ["Irish"], "address": "71 Uppper Dorset St, Dublin 1, City Centre North", "rating": 0, "review_count": 0, "BusinessID": "Dub00116", "latitude": 53.3573112488, "website": "http://www.templepub.com/index.php", "city": "Dublin", "longitude": -6.26365613937}, {"name": "Pearl Brasserie restaurant", "category": ["Fine Dining", "French"], "address": "20 Merrion Street Upper, Dublin 2, City Centre South", "rating": 4, "review_count": 250, "BusinessID": "Dub00117", "latitude": 53.3394584656, "website": "http://www.pearl-brasserie.com", "city": "Dublin", "longitude": -6.25228309631}, {"name": "Thai Orchid (Dublin) restaurant", "category": ["Asian", "European", "International", "Kid's Menu", "Thai"], "address": "7 Westmoreland Street, Dublin 2, City Centre South", "rating": 4, "review_count": 83, "BusinessID": "Dub00118", "latitude": 53.3457221985, "website": "http://www.thaiorchiddublin.com/", "city": "Dublin", "longitude": -6.25931024551}, {"name": "O'Connell's Bar & Restaurant", "category": ["Casual Dining", "Fish & Chips", "International", "Irish", "Pub Grub", "Traditional Irish"], "address": "30 Bachelors Walk (Beside O'Connell Bridge), City Centre North", "rating": 4, "review_count": 14, "BusinessID": "Dub00119", "latitude": 53.3473243713, "website": "", "city": "Dublin", "longitude": -6.26029729843}, {"name": "Il Vignardo restaurant", "category": ["Italian", "Pizzeria"], "address": "Beresford Hotel, 21 Store Street, IFSC", "rating": 4, "review_count": 65, "BusinessID": "Dub00120", "latitude": 53.3500480652, "website": "http://www.beresfordhotelifsc.com/en/dining/il-vignardo/", "city": "Dublin", "longitude": -6.25252819061}, {"name": "Beirut Express restaurant", "category": ["Ethnic", "Falafel", "Halal", "Lebanese", "Vegetarian"], "address": "69 Dame Street, Dublin 2, City Centre South", "rating": 4, "review_count": 34, "BusinessID": "Dub00121", "latitude": 0.0, "website": "https://www.facebook.com/pages/Beirut-Express/506532099359221?ref=ts&fref=ts/", "city": "Dublin", "longitude": 0.0}, {"name": "The Steps Of Rome (Chatham Court) restaurant", "category": ["Cheap Eats", "Italian", "Pizzeria"], "address": "1 Chatham Court, Dublin 2, City Centre South", "rating": 4, "review_count": 140, "BusinessID": "Dub00122", "latitude": 53.3409118652, "website": "http://www.stepsofrome.ie/", "city": "Dublin", "longitude": -6.26223945618}, {"name": "Carlo's Restaurant", "category": ["Cheap Eats", "International", "Italian", "Pizzeria"], "address": "63-64 O'Connell Street, Dublin 1, City Centre North", "rating": 4, "review_count": 247, "BusinessID": "Dub00123", "latitude": 53.3511810303, "website": "http://www.cafecarlo.net", "city": "Dublin", "longitude": -6.2605547905}, {"name": "Hailan Korean & Japanese Restaurant", "category": ["Asian Fusion", "Japanese", "Korean"], "address": "65 Dame Street, Dublin 2, City Centre South", "rating": 5, "review_count": 1, "BusinessID": "Dub00124", "latitude": 53.3442955017, "website": "https://www.facebook.com/HilanKang/timeline/", "city": "Dublin", "longitude": -6.26544857025}, {"name": "Dada Restaurant", "category": ["BYOB", "Coeliac options", "Mediterranean", "Moroccan"], "address": "45 South William Street, Dublin 2, City Centre South", "rating": 4, "review_count": 327, "BusinessID": "Dub00125", "latitude": 53.342010498, "website": "http://www.dadarestaurant.com/", "city": "Dublin", "longitude": -6.26266384125}, {"name": "The Gallery Restaurant at the Church", "category": ["Bistro", "Casual Dining", "Cheap Eats", "Steak and Seafood"], "address": "Junction of Mary St. & Jervis St., Dublin 1, City Centre North", "rating": 4, "review_count": 114, "BusinessID": "Dub00126", "latitude": 53.3487091064, "website": "  http://www.thegalleryrestaurantatthechurchdublin.com", "city": "Dublin", "longitude": -6.26677799225}, {"name": "Alfies restaurant", "category": ["Casual Dining", "Cocktails", "Girls Night Out"], "address": "10 South William Street, Dublin 2, City Centre South", "rating": 4, "review_count": 329, "BusinessID": "Dub00127", "latitude": 53.3424301147, "website": "http://www.alfiesrestaurantdublin.com", "city": "Dublin", "longitude": -6.26235723495}, {"name": "Hilan Chinese & Korean Restaurant", "category": ["Chinese", "Korean", "Vegetarian"], "address": "45 Capel Street, City Centre North", "rating": 4, "review_count": 57, "BusinessID": "Dub00128", "latitude": 53.3486824036, "website": "https://www.facebook.com/pages/Hilan-Chinese-Korean-Restaurant/156527037763969?sk=timeline/", "city": "Dublin", "longitude": -6.26868724823}, {"name": "South Street Restaurant", "category": ["Healthy Eating", "Italian", "Pizzeria"], "address": "Great Georges Street, Dublin 2, City Centre South", "rating": 3, "review_count": 42, "BusinessID": "Dub00129", "latitude": 53.3426094055, "website": "http://www.southstreetrestaurantdublin.com", "city": "Dublin", "longitude": -6.26454591751}, {"name": "Bobo's Gourmet Burgers (Dame St) restaurant", "category": ["American", "Casual Dining", "Gourmet Burger"], "address": "50-51 Dame St, Dublin 2, City Centre South", "rating": 4, "review_count": 40, "BusinessID": "Dub00130", "latitude": 53.3443260193, "website": "http://www.bobos.ie/index.html/", "city": "Dublin", "longitude": -6.26388502121}, {"name": "Amuse Restaurant", "category": ["Asian Fusion", "French", "Japanese"], "address": "22 Dawson Street, Dublin 2, Dawson Street", "rating": 5, "review_count": 6, "BusinessID": "Dub00131", "latitude": 53.3397216797, "website": "http://amuse.ie/", "city": "Dublin", "longitude": -6.25852203369}, {"name": "Dakota restaurant", "category": ["Casual Dining", "European", "Gastro Pub", "Healthy Eating", "Irish", "Kid's Menu", "Pub Grub"], "address": "South William Street, South William Street", "rating": 3, "review_count": 104, "BusinessID": "Dub00132", "latitude": 53.3427810669, "website": "http://www.dakotabar.ie", "city": "Dublin", "longitude": -6.26224994659}, {"name": "Writers Lounge restaurant", "category": ["Bistro", "Brasserie", "Cocktails"], "address": "The Gresham Hotel, O'Connell St", "rating": 5, "review_count": 1, "BusinessID": "Dub00133", "latitude": 53.3516654968, "website": "http://www.gresham-hotels-dublin.com/dining-writers-lounge.html/", "city": "Dublin", "longitude": -6.26072120667}, {"name": "Eden Bar and Grill restaurant", "category": ["European", "Girls Night Out", "Steak and Seafood", "Sunday Lunch"], "address": "7 South William Street, Dublin 2 , City Centre South", "rating": 4, "review_count": 26, "BusinessID": "Dub00134", "latitude": 53.3427848816, "website": "http://www.edenbarandgrill.ie/", "city": "Dublin", "longitude": -6.26245450974}, {"name": "The Italian Connection restaurant", "category": ["Breakfast", "Brunch", "Casual Dining", "Italian"], "address": "95 Talbot Street, City Centre North", "rating": 4, "review_count": 116, "BusinessID": "Dub00135", "latitude": 53.3504600525, "website": "http://www.italianconnection.ie/", "city": "Dublin", "longitude": -6.25630617142}, {"name": "Saison restaurant", "category": ["Fine Dining", "French", "Steak and Seafood"], "address": "21 Kildare Street, Dublin, City Centre South", "rating": 5, "review_count": 31, "BusinessID": "Dub00136", "latitude": 53.3396606445, "website": "http://saison.ie/", "city": "Dublin", "longitude": -6.25615930557}, {"name": "Acapulco Restaurant", "category": ["Cheap Eats", "Girls Night Out", "Mexican"], "address": "7 South Great Georges Street, Dublin 2 , City Centre South", "rating": 4, "review_count": 468, "BusinessID": "Dub00137", "latitude": 53.343296051, "website": "http://www.acapulcorestaurantdublin.com", "city": "Dublin", "longitude": -6.26435279846}, {"name": "La Mere Zou restaurant", "category": ["European", "French", "Seafood"], "address": "22 St Stephens Green, Dublin , City Centre South", "rating": 4, "review_count": 207, "BusinessID": "Dub00138", "latitude": 53.3392295837, "website": "http://lamerezou.ie/", "city": "Dublin", "longitude": -6.25705718994}, {"name": "The Big Tree restaurant", "category": ["Cheap Eats", "Pub Grub"], "address": "39 Dorset Street Lower, City Centre North", "rating": 0, "review_count": 0, "BusinessID": "Dub00139", "latitude": 53.3544311523, "website": "", "city": "Dublin", "longitude": -6.26669168472}, {"name": "The Boars Head restaurant", "category": ["Cheap Eats", "Pub Grub"], "address": "149 Capel Street, City Centre North", "rating": 4, "review_count": 4, "BusinessID": "Dub00140", "latitude": 53.3481445312, "website": "", "city": "Dublin", "longitude": -6.26911640167}, {"name": "Indian Signature restaurant", "category": ["Indian"], "address": "Unit 3, The Coombe, Coombe House, City Centre South", "rating": 0, "review_count": 0, "BusinessID": "Dub00141", "latitude": 53.3441619873, "website": "", "city": "Dublin", "longitude": -6.27704620361}, {"name": "The Arlington Bar @ The Arlington Hotel restaurant", "category": ["Breakfast"], "address": "23-25 Bachelors Walk, O'Connell Bridge, Dublin 1, City Centre North", "rating": 0, "review_count": 0, "BusinessID": "Dub00142", "latitude": 0.0, "website": "http://www.arlington.ie/?gclid=CNSJkpLqsrwCFQKy2wodi0gApQ", "city": "Dublin", "longitude": 0.0}, {"name": "Han Yang Asian Market restaurant", "category": ["Asian", "Delicatessen", "Korean"], "address": "22 Great Strand Street, City Centre North", "rating": 4, "review_count": 3, "BusinessID": "Dub00143", "latitude": 53.3468170166, "website": "", "city": "Dublin", "longitude": -6.26584672928}, {"name": "The Drawing Rooms restaurant", "category": ["Cheap Eats", "European"], "address": "The Merrion Hotel, Upper Merrion Street, Dublin 2, City Centre South", "rating": 4, "review_count": 1, "BusinessID": "Dub00144", "latitude": 53.3386001587, "website": "http://www.merrionhotel.com/drawing.asp", "city": "Dublin", "longitude": -6.25302314758}, {"name": "Neon Asian Street Food restaurant", "category": ["Asian", "Asian Fusion", "Thai"], "address": "17 Camden Street, Dublin 2, City Centre South", "rating": 4, "review_count": 34, "BusinessID": "Dub00145", "latitude": 0.0, "website": "http://www.neon17.ie/", "city": "Dublin", "longitude": 0.0}, {"name": "Carluccio's Caffe restaurant", "category": ["Italian"], "address": "52 Dawson Street, Dublin 2 , City Centre South", "rating": 4, "review_count": 236, "BusinessID": "Dub00146", "latitude": 53.3418502808, "website": "http://www.facebook.com/Carluccios.Dawson.Street ", "city": "Dublin", "longitude": -6.25805902481}, {"name": "Salt Cellar restaurant", "category": ["Casual Dining"], "address": "29 Upper Mount St, City Centre South", "rating": 0, "review_count": 0, "BusinessID": "Dub00147", "latitude": 53.337097168, "website": "", "city": "Dublin", "longitude": -6.24455070496}, {"name": "Lolly and Cooks restaurant", "category": ["Bistro", "Breakfast", "Brunch", "Cafe", "Casual Dining", "Cheap Eats", "European"], "address": "18 Upper Merrion Street, Dublin 2, City Centre South", "rating": 5, "review_count": 3, "BusinessID": "Dub00148", "latitude": 0.0, "website": "http://www.lollyandcooks.com/retail_baggot.html", "city": "Dublin", "longitude": 0.0}, {"name": "The Playwright Restaurant", "category": ["International", "Italian"], "address": "Wynns Hotel, 35-39 Abbey Street, City Centre North", "rating": 2, "review_count": 2, "BusinessID": "Dub00149", "latitude": 53.348449707, "website": "http://www.wynnshotel.ie", "city": "Dublin", "longitude": -6.25892400742}, {"name": "Juice Vegetarian Restaurant", "category": ["Cheap Eats", "Vegetarian"], "address": "9 Castle House, South Great Georges Street, Dublin 2, City Centre South", "rating": 3, "review_count": 97, "BusinessID": "Dub00150", "latitude": 53.3428268433, "website": "http://www.juicerestaurant.ie", "city": "Dublin", "longitude": -6.26451349258}, {"name": "Wallace's Asti restaurant", "category": ["Italian"], "address": "15 Russell Street, Behan Square (just off the North Circular Road at Croke Park), City Centre North", "rating": 4, "review_count": 33, "BusinessID": "Dub00151", "latitude": 53.3597412109, "website": "http://www.wallacewinebars.ie/", "city": "Dublin", "longitude": -6.25389194489}, {"name": "Pichet restaurant", "category": ["Brasserie", "Cafe", "French", "Irish"], "address": "Trinity Street, Dublin , City Centre South", "rating": 4, "review_count": 284, "BusinessID": "Dub00152", "latitude": 53.3438682556, "website": "http://www.pichetrestaurant.ie/", "city": "Dublin", "longitude": -6.26217126846}, {"name": "The Deli at Dublin Wine Rooms restaurant", "category": ["Healthy Eating", "International", "Irish"], "address": "Custom House Square, IFSC, IFSC", "rating": 0, "review_count": 0, "BusinessID": "Dub00153", "latitude": 0.0, "website": "http://www.dublinwinerooms.com/wine_bar.php", "city": "Dublin", "longitude": 0.0}, {"name": "Bloom Brasserie & Wine Bar restaurant", "category": ["Brasserie", "Cheap Eats", "European"], "address": "11 Upper Baggot Street, Dublin 4, City Centre South", "rating": 4, "review_count": 97, "BusinessID": "Dub00154", "latitude": 53.3336181641, "website": "http://www.bloombrasseriedublin.com", "city": "Dublin", "longitude": -6.2448425293}, {"name": "Itsa @ Arnotts (Bagel Store) restaurant", "category": ["Casual Dining", "Cheap Eats"], "address": "Arnotts, Abbey Street, City Centre North", "rating": 4, "review_count": 11, "BusinessID": "Dub00155", "latitude": 53.3481216431, "website": "http://www.itsa.ie", "city": "Dublin", "longitude": -6.26204586029}, {"name": "Gerry's Coffee Shop restaurant", "category": ["Breakfast", "Brunch", "Cafe"], "address": "6 Montague Street, City Centre South", "rating": 5, "review_count": 1, "BusinessID": "Dub00156", "latitude": 53.3365135193, "website": "", "city": "Dublin", "longitude": -6.26439285278}, {"name": "Slatterys restaurant", "category": ["Cheap Eats", "Pub Grub"], "address": "129 Capel Street, City Centre North", "rating": 4, "review_count": 8, "BusinessID": "Dub00157", "latitude": 53.348361969, "website": "http://www.slatterysbar.com/", "city": "Dublin", "longitude": -6.26883745193}, {"name": "Crunch Cafe restaurant", "category": ["Cafe"], "address": "10a aungier st, City Centre South", "rating": 5, "review_count": 6, "BusinessID": "Dub00158", "latitude": 53.3400382996, "website": "", "city": "Dublin", "longitude": -6.26577806473}, {"name": "Jindal Chinese & Korean Restaurant", "category": ["Asian Fusion", "Chinese", "Korean"], "address": "106 Parnell Street, City Centre North", "rating": 0, "review_count": 1, "BusinessID": "Dub00159", "latitude": 53.3537025452, "website": "https://www.facebook.com/jindalrestaurant/", "city": "Dublin", "longitude": -6.25836277008}, {"name": "Foley's Bar & Restaurant (Dublin)", "category": ["European"], "address": "No. 1 Merrion Row, Dublin, City Centre South", "rating": 0, "review_count": 0, "BusinessID": "Dub00160", "latitude": 0.0, "website": "http://www.foleys.ie/", "city": "Dublin", "longitude": 0.0}, {"name": "Lanyons Restaurant", "category": ["European"], "address": "The Davenport Hotel, Merrion Square, Dublin 2, City Centre South", "rating": 4, "review_count": 1, "BusinessID": "Dub00161", "latitude": 53.3402633667, "website": "http://www.ocallaghanhotels.com", "city": "Dublin", "longitude": -6.24845266342}, {"name": "The Olive Cafe (Fumbally Studios) restaurant", "category": ["Bakery", "Brunch", "Cafe", "Casual Dining", "Cheap Eats"], "address": "Fumbally  Studios, Fumbally Lane, City Centre South", "rating": 0, "review_count": 0, "BusinessID": "Dub00162", "latitude": 0.0, "website": "http://www.fumbally.com/oliveCafe.asp", "city": "Dublin", "longitude": 0.0}, {"name": "The Silver Granite restaurant", "category": ["Cheap Eats", "Pub Grub"], "address": "Kennelsfort Road Palmerstown, City Centre South", "rating": 0, "review_count": 0, "BusinessID": "Dub00163", "latitude": 53.3476066589, "website": "http://www.towey.com", "city": "Dublin", "longitude": -6.37850761414}, {"name": "Il Posto restaurant", "category": ["Italian", "Mediterranean"], "address": "10 St Stephen's Green, Dublin 2, City Centre South", "rating": 4, "review_count": 128, "BusinessID": "Dub00164", "latitude": 53.3383407593, "website": "http://www.ilpostorestaurant.com/", "city": "Dublin", "longitude": -6.26210021973}, {"name": "Solas (Wexford St) restaurant", "category": ["Asian Fusion", "Casual Dining", "Coeliac options", "Gastro Pub", "International"], "address": "31 Wexford Street, City Centre South", "rating": 4, "review_count": 94, "BusinessID": "Dub00165", "latitude": 53.3368186951, "website": "http://www.solasbars.com", "city": "Dublin", "longitude": -6.26585483551}, {"name": "The Duke restaurant", "category": ["Irish", "Pub Grub"], "address": "Duke Street, City Centre South", "rating": 3, "review_count": 7, "BusinessID": "Dub00166", "latitude": 53.3418655396, "website": "http://www.thedukedublin.com/", "city": "Dublin", "longitude": -6.25855922699}, {"name": "Footplate Brasserie restaurant", "category": ["Brasserie", "Cafe", "Cheap Eats"], "address": "Platform 2\r\nHeuston Station\r\nJohn's Road, City Centre South", "rating": 0, "review_count": 0, "BusinessID": "Dub00167", "latitude": 53.346118927, "website": "http://www.irishrail.ie", "city": "Dublin", "longitude": -6.29362106323}, {"name": "The Gin Palace restaurant", "category": ["Gastro Pub", "Mediterranean", "Pub Grub"], "address": "Middle Abbey Street, City Centre North", "rating": 4, "review_count": 37, "BusinessID": "Dub00168", "latitude": 53.3481330872, "website": "http://www.theginpalace.ie", "city": "Dublin", "longitude": -6.26181602478}, {"name": "Cafe Bar restaurant", "category": ["Cheap Eats", "European"], "address": "The Morrison HotelLower Ormond Quay, City Centre North", "rating": 1, "review_count": 1, "BusinessID": "Dub00169", "latitude": 53.3463249207, "website": "http://www.morrisonhotel.ie", "city": "Dublin", "longitude": -6.26589775085}, {"name": "Ichiban Sushi & Thai restaurant", "category": ["Japanese", "Sushi", "Thai"], "address": "139 Parnell Street, City Centre North", "rating": 0, "review_count": 0, "BusinessID": "Dub00170", "latitude": 0.0, "website": "", "city": "Dublin", "longitude": 0.0}, {"name": "O'Neills Bar & Restaurant", "category": ["Gastro Pub", "International", "Irish"], "address": "Suffolk Street, City Centre South", "rating": 3, "review_count": 37, "BusinessID": "Dub00171", "latitude": 53.3440818787, "website": "http://www.oneillsbar.com", "city": "Dublin", "longitude": -6.26083421707}, {"name": "Phoenix Park Tea Rooms restaurant", "category": ["Cafe"], "address": "Beside Dublin Zoo, Chesterfield Avenue, City Centre North", "rating": 4, "review_count": 7, "BusinessID": "Dub00172", "latitude": 53.3527030945, "website": "http://www.phoenixpark.ie/visitorinformation/cafetearoomsicecreamkiosks/", "city": "Dublin", "longitude": -6.3076543808}, {"name": "KC Peaches St Stephens Green restaurant", "category": ["Cafe", "Casual Dining", "Delicatessen"], "address": "35-37 St Stephens Green, Dublin 2 , City Centre South", "rating": 4, "review_count": 5, "BusinessID": "Dub00173", "latitude": 53.3386383057, "website": "http://kcpeaches.com/", "city": "Dublin", "longitude": -6.25519990921}, {"name": "Jaipur Restaurant (George's Street)", "category": ["Indian"], "address": "41 South Great Georges Street, Dublin 2 , City Centre South", "rating": 4, "review_count": 203, "BusinessID": "Dub00174", "latitude": 53.3421516418, "website": "http://www.jaipur.ie", "city": "Dublin", "longitude": -6.26464176178}, {"name": "Bach 16 restaurant", "category": ["Bistro", "Italian", "Pizzeria", "Vegetarian", "Wine Bar"], "address": "16 Bachelors Walk, City Centre North", "rating": 5, "review_count": 10, "BusinessID": "Dub00175", "latitude": 53.346950531, "website": "http://www.bach16.com/", "city": "Dublin", "longitude": -6.26166772842}, {"name": "The Hot Stove restaurant", "category": ["Fine Dining", "Irish", "Seafood"], "address": "38 Parnell Square West, Dublin 1 , City Centre North", "rating": 4, "review_count": 22, "BusinessID": "Dub00176", "latitude": 53.3529815674, "website": "http://thehotstove.ie/", "city": "Dublin", "longitude": -6.26492881775}, {"name": "Bonza Pies restaurant", "category": ["International"], "address": "Ilac Centre, O'Connell Street, City Centre North", "rating": 4, "review_count": 1, "BusinessID": "Dub00177", "latitude": 0.0, "website": "http://bonzapies.weebly.com/index.html", "city": "Dublin", "longitude": 0.0}, {"name": "Bleecker Street Cafe Bar restaurant", "category": ["American", "Brunch", "Cafe", "Gastro Pub"], "address": "68 Upper Dorset St, City Centre North", "rating": 5, "review_count": 27, "BusinessID": "Dub00178", "latitude": 53.3551559448, "website": "http://www.bleeckerstreetbar.com/", "city": "Dublin", "longitude": -6.26600503922}, {"name": "Murphys Ice Cream Wicklow Street restaurant", "category": ["Cafe"], "address": "27 Wicklow Street, City Centre South", "rating": 4, "review_count": 7, "BusinessID": "Dub00179", "latitude": 53.3430786133, "website": "www.murphysicecream.ie", "city": "Dublin", "longitude": -6.2610039711}, {"name": "Doyle's  restaurant", "category": ["Cheap Eats", "Pub Grub"], "address": "9 College Street, Dublin 2, City Centre South", "rating": 5, "review_count": 3, "BusinessID": "Dub00180", "latitude": 53.3455429077, "website": "http://www.doylesintown.com", "city": "Dublin", "longitude": -6.25804424286}, {"name": "Captain America's Cookhouse And Bar restaurant", "category": ["American"], "address": "44 Grafton Street, Dublin 2, City Centre South", "rating": 3, "review_count": 323, "BusinessID": "Dub00181", "latitude": 53.3403015137, "website": "http://www.captainamericas.com", "city": "Dublin", "longitude": -6.26074790955}, {"name": "Busyfeet & Coco Cafe restaurant", "category": ["Cafe", "Cheap Eats"], "address": "41- 42 South William Street, South William Street", "rating": 4, "review_count": 68, "BusinessID": "Dub00182", "latitude": 53.34192276, "website": "", "city": "Dublin", "longitude": -6.26275396347}, {"name": "Express Train Chinese Restaurant", "category": ["Chinese"], "address": "71 Thomas Street, Dublin 2, City Centre South", "rating": 4, "review_count": 1, "BusinessID": "Dub00183", "latitude": 53.3429298401, "website": "", "city": "Dublin", "longitude": -6.27681922913}, {"name": "Gibson's Deli & Bakery restaurant", "category": ["Bakery"], "address": "17 Wicklow St, City Centre South", "rating": 4, "review_count": 11, "BusinessID": "Dub00184", "latitude": 53.3429336548, "website": "http://www.gibsonsbakery.com", "city": "Dublin", "longitude": -6.26087522507}, {"name": "Pablo Picante - Clarendon Market restaurant", "category": ["Mexican"], "address": "4 Clarendon Market, Between Clarendon Row & South William Street, Dublin  2, City Centre South", "rating": 4, "review_count": 9, "BusinessID": "Dub00185", "latitude": 53.3409996033, "website": "http://www.pablopicante.ie/index.html", "city": "Dublin", "longitude": -6.26338720322}, {"name": "Caife Una restaurant", "category": ["Cafe"], "address": "46 Kildare st, City Centre South", "rating": 0, "review_count": 0, "BusinessID": "Dub00186", "latitude": 53.3408203125, "website": "", "city": "Dublin", "longitude": -6.25533342361}, {"name": "Peruke & Periwig restaurant", "category": ["Cocktails", "Irish"], "address": "31 Dawson St, Dublin 2, City Centre South", "rating": 3, "review_count": 2, "BusinessID": "Dub00187", "latitude": 53.3400688171, "website": "http://peruke.ie/", "city": "Dublin", "longitude": -6.25878429413}, {"name": "The Mezzanine Coffee & Bar restaurant", "category": ["Cafe", "Cheap Eats", "Coeliac options"], "address": "Bewely's Grafton Street, Dublin 2, City Centre South", "rating": 4, "review_count": 2, "BusinessID": "Dub00188", "latitude": 53.3428649902, "website": "http://www.bewleyscafe.com", "city": "Dublin", "longitude": -6.25952482224}, {"name": "The Cake Cafe restaurant", "category": ["Cafe", "Cheap Eats", "Organic"], "address": "62 Pleasants Place, Dublin 2, City Centre South", "rating": 4, "review_count": 93, "BusinessID": "Dub00189", "latitude": 53.3349075317, "website": "http://www.thecakecafe.ie", "city": "Dublin", "longitude": -6.2660908699}, {"name": "Toss'd Noodles & Salads restaurant", "category": ["Asian Fusion", "Cheap Eats"], "address": "Chq Building, Dublin Docklands, City Centre North", "rating": 4, "review_count": 21, "BusinessID": "Dub00190", "latitude": 53.3504753113, "website": "http://www.tossd.com", "city": "Dublin", "longitude": -6.23872184753}, {"name": "Da Mimmo Restaurant", "category": ["Delicatessen", "Italian", "Pizzeria"], "address": "148A North Strand Road, City Centre North", "rating": 4, "review_count": 9, "BusinessID": "Dub00191", "latitude": 53.3572235107, "website": "http://www.damimmo.ie/", "city": "Dublin", "longitude": -6.2432217598}, {"name": "The Saddle Room restaurant", "category": ["European", "Healthy Eating", "Irish", "Seafood", "Steak", "Steak and Seafood"], "address": "The Shelbourne Hotel, 27 St Stephen's Green, Dublin, City Centre South", "rating": 4, "review_count": 105, "BusinessID": "Dub00192", "latitude": 53.3387489319, "website": "http://www.theshelbourne.ie", "city": "Dublin", "longitude": -6.25609207153}, {"name": "Berry Lane Bistro restaurant", "category": ["Casual Dining", "European"], "address": "Phoenix Park Hotel, 38-39 Parkgate Street, Parkgate Street", "rating": 0, "review_count": 0, "BusinessID": "Dub00193", "latitude": 53.3482475281, "website": "", "city": "Dublin", "longitude": -6.29499578476}, {"name": "The Cellar Bar restaurant", "category": ["Brunch", "Gastro Pub", "Pub Grub"], "address": "The Merrion Hotel, Upper Merrion Street, City Centre South", "rating": 4, "review_count": 9, "BusinessID": "Dub00194", "latitude": 53.3384590149, "website": "http://www.merrionhotel.com", "city": "Dublin", "longitude": -6.25315189362}, {"name": "Hemidemisemiquaver Bar restaurant", "category": ["Asian", "European"], "address": "The Gibson Hotel, Point Village, Dublin 1, City Centre North", "rating": 3, "review_count": 6, "BusinessID": "Dub00195", "latitude": 53.3441047668, "website": "http://www.thegibsonhotel.ie", "city": "Dublin", "longitude": -6.26749372482}, {"name": "Eddie Rockets (Parnell Centre) restaurant", "category": ["American", "Cheap Eats"], "address": "Parnell Centre, City Centre North", "rating": 3, "review_count": 56, "BusinessID": "Dub00196", "latitude": 53.3508071899, "website": "http://www.eddierockets.ie", "city": "Dublin", "longitude": -6.26579046249}, {"name": "Keogh's Cafe restaurant", "category": ["Cafe", "Cheap Eats"], "address": "1-2 Trinity Street, City Centre South", "rating": 4, "review_count": 36, "BusinessID": "Dub00197", "latitude": 53.3439941406, "website": "", "city": "Dublin", "longitude": -6.26224994659}, {"name": "The Restaurant at Dublin Wine Rooms", "category": ["European", "Wine Bar"], "address": "Custom House Square, Dublin 1 , City Centre, IFSC", "rating": 4, "review_count": 17, "BusinessID": "Dub00198", "latitude": 53.3481140137, "website": "http://www.dublinwinerooms.com/", "city": "Dublin", "longitude": -6.24848222733}, {"name": "BANG Restaurant", "category": ["European", "Fine Dining", "Irish"], "address": "11 Merrion Row, Dublin 2, City Centre South", "rating": 4, "review_count": 107, "BusinessID": "Dub00199", "latitude": 53.3384094238, "website": "http://www.bangrestaurant.com/", "city": "Dublin", "longitude": -6.25488519669}, {"name": "The Brazen Head restaurant", "category": ["Cheap Eats", "Pub Grub"], "address": "20 Lower Bridge Street, City Centre South", "rating": 4, "review_count": 15, "BusinessID": "Dub00200", "latitude": 53.3448524475, "website": "http://www.brazenhead.com", "city": "Dublin", "longitude": -6.2761759758}, {"name": "Hung Kee Chinese Restaurant", "category": ["Chinese"], "address": "138 Parnell St, City Centre North", "rating": 0, "review_count": 0, "BusinessID": "Dub00201", "latitude": 53.3538551331, "website": "", "city": "Dublin", "longitude": -6.25905752182}, {"name": "The Bankers restaurant", "category": ["Cheap Eats", "Pub Grub"], "address": "16 Trinity Street, City Centre South", "rating": 4, "review_count": 5, "BusinessID": "Dub00202", "latitude": 53.3441581726, "website": "", "city": "Dublin", "longitude": -6.26253414154}, {"name": "Langkawi restaurant", "category": ["Malaysian"], "address": "46 Upper Baggot Street, Dublin 4, City Centre South", "rating": 4, "review_count": 65, "BusinessID": "Dub00203", "latitude": 53.3335914612, "website": "", "city": "Dublin", "longitude": -6.24414014816}, {"name": "Sinnotts restaurant", "category": ["Gastro Pub", "Pub Grub"], "address": "South King Street, City Centre South", "rating": 4, "review_count": 20, "BusinessID": "Dub00204", "latitude": 53.3400611877, "website": "http://www.sinnotts.ie/", "city": "Dublin", "longitude": -6.2610912323}, {"name": "Waterside Cafe restaurant", "category": ["Cafe", "Casual Dining"], "address": "6 Parliament Street, City Centre South", "rating": 0, "review_count": 0, "BusinessID": "Dub00205", "latitude": 53.3444747925, "website": "", "city": "Dublin", "longitude": -6.26736164093}, {"name": "Oly\u2019s Bar and Restaurant @ Jurys Inn", "category": ["European"], "address": "Jurys Inn, Custom House Quay, Dublin 1, City Centre, IFSC", "rating": 4, "review_count": 1, "BusinessID": "Dub00206", "latitude": 53.3479652405, "website": "http://www.jurys-dublin-hotels.com/", "city": "Dublin", "longitude": -6.2446975708}, {"name": "Aobaba Bubble Tea & Juicy Bar restaurant", "category": ["Asian", "Asian Fusion", "Cafe", "Cheap Eats", "Chinese", "Fast Food", "Filipino", "International", "Japanese", "Korean", "Malaysian", "Pan Asian", "Thai", "Vegetarian", "Vietnamese"], "address": "46A Capel Street, Dublin 1, City Centre North", "rating": 4, "review_count": 4, "BusinessID": "Dub00207", "latitude": 53.3488273621, "website": "http://www.aobaba.com/", "city": "Dublin", "longitude": -6.2688202858}, {"name": "Sweeneys Bar restaurant", "category": ["Casual Dining", "Cocktails", "Pub Grub"], "address": "Le Cirk Boutique Hotel, 32 Dame Street, City Centre South", "rating": 4, "review_count": 2, "BusinessID": "Dub00208", "latitude": 53.3441963196, "website": "http://www.sweeneysdublin.ie/", "city": "Dublin", "longitude": -6.26339197159}, {"name": "Brother Hubbard restaurant", "category": ["Breakfast", "Brunch", "Cafe"], "address": "153 capel st, Dublin 1, City Centre North", "rating": 5, "review_count": 14, "BusinessID": "Dub00209", "latitude": 0.0, "website": "http://brotherhubbard.ie/", "city": "Dublin", "longitude": 0.0}, {"name": "Simons Place Coffee Shop restaurant", "category": ["Cafe", "Cheap Eats"], "address": "22 South Great Georges Street, City Centre South", "rating": 4, "review_count": 17, "BusinessID": "Dub00210", "latitude": 53.3432884216, "website": "", "city": "Dublin", "longitude": -6.26437425613}, {"name": "The Iveagh Restaurant", "category": ["American", "Bistro", "Brasserie", "Carvery", "Casual Dining", "European", "Healthy Eating", "International", "Irish", "Mediterranean", "Organic", "Pan European", "Steak and Seafood"], "address": "The Camden Court Hotel, Camden Street, Dublin 2 , City Centre South", "rating": 4, "review_count": 7, "BusinessID": "Dub00211", "latitude": 53.3331031799, "website": "http://www.camdencourthotel.com", "city": "Dublin", "longitude": -6.2645072937}, {"name": "Ukiyo restaurant", "category": ["Cheap Eats", "Healthy Eating", "Japanese", "Korean"], "address": "7-9 Exchequer Street, Dublin 2, City Centre South", "rating": 4, "review_count": 161, "BusinessID": "Dub00212", "latitude": 53.3430595398, "website": "http://www.ukiyobar.com", "city": "Dublin", "longitude": -6.26327991486}, {"name": "Ristorante Romano restaurant", "category": ["Cheap Eats", "Italian"], "address": "12 Capel Street, Dublin 1, City Centre North", "rating": 4, "review_count": 74, "BusinessID": "Dub00213", "latitude": 53.3466835022, "website": "", "city": "Dublin", "longitude": -6.26804351807}, {"name": "New Star Chinese Restaurant", "category": ["Chinese"], "address": "120 Capel Street, City Centre North", "rating": 4, "review_count": 11, "BusinessID": "Dub00214", "latitude": 53.3488693237, "website": "", "city": "Dublin", "longitude": -6.26896047592}, {"name": "The Sussex restaurant", "category": ["Irish", "Seafood", "Steak"], "address": "9 Sussex Terrace, Upper Leeson Street, Dublin 4, City Centre South", "rating": 5, "review_count": 15, "BusinessID": "Dub00215", "latitude": 53.3295021057, "website": "http://www.thesussex.ie/", "city": "Dublin", "longitude": -6.24875020981}, {"name": "The Port House restaurant", "category": ["Cheap Eats", "Mediterranean", "Spanish", "Tapas", "Wine Bar"], "address": "64a South William Street, Dublin 2, City Centre South", "rating": 4, "review_count": 550, "BusinessID": "Dub00216", "latitude": 53.3420791626, "website": "http://www.porthouse.ie", "city": "Dublin", "longitude": -6.26272201538}, {"name": "Lannigans Restaurant", "category": ["European"], "address": "Quality Hotel Dublin City, Sir John Rogersons Quay, Dublin 2, City Centre South", "rating": 2, "review_count": 1, "BusinessID": "Dub00217", "latitude": 53.3458137512, "website": "http://www.qualityhoteldublincity.com/restaurant&bar;.htm", "city": "Dublin", "longitude": -6.23607158661}, {"name": "Saints & Scholars Lounge restaurant", "category": ["Cheap Eats", "Pub Grub"], "address": "35 Abbey Street Lower, City Centre North", "rating": 3, "review_count": 11, "BusinessID": "Dub00218", "latitude": 53.3483352661, "website": "http://www.wynnshotel.ie", "city": "Dublin", "longitude": -6.25916004181}, {"name": "The Bagel Bar (Georges Street) restaurant", "category": ["Cafe", "Cheap Eats"], "address": "Georges Arcade, South Great Georges Street, City Centre South", "rating": 2, "review_count": 2, "BusinessID": "Dub00219", "latitude": 53.3435821533, "website": "http://www.thebagelbars.com", "city": "Dublin", "longitude": -6.26436901093}, {"name": "Kokoro Sushi Bento restaurant", "category": ["Cheap Eats", "Healthy Eating", "Japanese", "Sushi"], "address": "19 Lower Liffey Street, City Centre North", "rating": 4, "review_count": 41, "BusinessID": "Dub00220", "latitude": 53.347618103, "website": "http://kokorosushibento.com/index.html", "city": "Dublin", "longitude": -6.26356983185}, {"name": "Honest to Goodnes restaurant", "category": ["Cafe", "Casual Dining", "Cheap Eats", "European"], "address": "12 Dame Court, Dame Street", "rating": 5, "review_count": 3, "BusinessID": "Dub00221", "latitude": 53.3434829712, "website": "http://www.honesttogoodness.ie/", "city": "Dublin", "longitude": -6.26388072968}, {"name": "The Porterhouse (Central) restaurant", "category": ["European", "Gastro Pub", "Irish", "Kid's Menu", "Pub Grub", "Steak"], "address": "45-47 Nassau Street, City Centre South", "rating": 4, "review_count": 107, "BusinessID": "Dub00222", "latitude": 53.3430595398, "website": "http://www.porterhousebrewco.com", "city": "Dublin", "longitude": -6.25875234604}, {"name": "Trumans Restaurant", "category": ["European"], "address": "Buswells Hotel, Molesworth Street, Dublin 2, City Centre South", "rating": 5, "review_count": 5, "BusinessID": "Dub00223", "latitude": 53.3396873474, "website": "http://www.buswells.ie/index.cfm/section/inside/display/7/restaurantbar.htm", "city": "Dublin", "longitude": -6.25612354279}, {"name": "Nostromo Private Party Venue restaurant", "category": ["European"], "address": "25a Lower Leeson Street, City Centre South", "rating": 4, "review_count": 31, "BusinessID": "Dub00224", "latitude": 53.3337593079, "website": "http://www.nostromo.ie", "city": "Dublin", "longitude": -6.25474023819}, {"name": "Itsa @ Fitzwilliam Lane (Bagel Store) restaurant", "category": ["Casual Dining", "Cheap Eats"], "address": "16 Fitzwilliam Lane, Laneway Adjacent to the Merrion Hotel, City Centre South", "rating": 4, "review_count": 1, "BusinessID": "Dub00225", "latitude": 53.338760376, "website": "http://www.itsa.ie", "city": "Dublin", "longitude": -6.25196123123}, {"name": "Rosie's Cafe restaurant", "category": ["Bistro", "Breakfast", "Brunch", "Cafe"], "address": "No. 1 Werburgh Street, Christchurch, City Centre South", "rating": 5, "review_count": 1, "BusinessID": "Dub00226", "latitude": 53.3428115845, "website": "http://www.rosiescafe.ie/", "city": "Dublin", "longitude": -6.27005147934}, {"name": "Honest To Goodness restaurant", "category": ["Cafe", "Casual Dining"], "address": "25 Market Arcade, Georges Street, City Centre South", "rating": 4, "review_count": 13, "BusinessID": "Dub00227", "latitude": 53.3426895142, "website": "http://www.honesttogoodness.ie", "city": "Dublin", "longitude": -6.26424598694}, {"name": "Corfu Greek Restaurant", "category": ["Casual Dining", "European", "Greek"], "address": "12 Parliment Street, Dublin 2, City Centre South", "rating": 5, "review_count": 54, "BusinessID": "Dub00228", "latitude": 53.344783783, "website": "http://corfurestaurant.ie/index.html", "city": "Dublin", "longitude": -6.26746320724}, {"name": "Pie Dish Restaurant", "category": ["European"], "address": "Stephens Green Hotel,, St Stephen's Green, Dublin 2, City Centre South", "rating": 0, "review_count": 0, "BusinessID": "Dub00229", "latitude": 0.0, "website": "http://www.stephensgreenhotel.ie/", "city": "Dublin", "longitude": 0.0}, {"name": "Gourmet Burger Kitchen - GBK (South William Street) restaurant", "category": ["American", "Cheap Eats", "Gourmet Burger", "International", "Kid's Menu"], "address": "14 South William Street, Dublin 2, City Centre South", "rating": 4, "review_count": 81, "BusinessID": "Dub00230", "latitude": 53.341960907, "website": "http://www.gbkinfo.com", "city": "Dublin", "longitude": -6.2627120018}, {"name": "Wuff restaurant", "category": ["Bistro", "Breakfast", "Brunch", "European", "International"], "address": "23 Benburb Street, Dublin 7, City Centre North", "rating": 4, "review_count": 16, "BusinessID": "Dub00231", "latitude": 0.0, "website": "http://www.wuff.ie/index.html", "city": "Dublin", "longitude": 0.0}, {"name": "Knights Bistro @ The Arlington Hotel restaurant", "category": ["Bistro", "Irish"], "address": "23-25 Bachelors Walk, O'Connell Bridge, Dublin 1, City Centre North", "rating": 3, "review_count": 8, "BusinessID": "Dub00232", "latitude": 53.3472938538, "website": "http://www.arlington.ie", "city": "Dublin", "longitude": -6.2602930069}, {"name": "Canal Boat Restaurant", "category": ["European", "International", "Irish"], "address": "Charlemont Place, Dublin 2 , City Centre South", "rating": 0, "review_count": 0, "BusinessID": "Dub00233", "latitude": 53.3311805725, "website": "http://www.canalboatrestaurant.ie/", "city": "Dublin", "longitude": -6.25758600235}, {"name": "KC Peaches Cafe Dame St restaurant", "category": ["American", "Cafe", "Delicatessen", "Mediterranean"], "address": "54 Dame Street, Dublin 2, City Centre South", "rating": 4, "review_count": 41, "BusinessID": "Dub00234", "latitude": 53.3442802429, "website": "www.kcpeaches.com", "city": "Dublin", "longitude": -6.26538944244}, {"name": "The Brew Dock restaurant", "category": ["Delicatessen", "Gastro Pub", "Pub Grub"], "address": "1 Amiens Street, City Centre North", "rating": 3, "review_count": 3, "BusinessID": "Dub00235", "latitude": 0.0, "website": "http://www.winefoodbeer.com/", "city": "Dublin", "longitude": 0.0}, {"name": "The Lynams Hotel restaurant", "category": ["Steak"], "address": "63/64 O'Connell Street, Dublin 1, City Centre North", "rating": 0, "review_count": 0, "BusinessID": "Dub00236", "latitude": 0.0, "website": "http://www.lynamshotel.ie/", "city": "Dublin", "longitude": 0.0}, {"name": "Cafe Cagliostro restaurant", "category": ["Cafe", "Cheap Eats"], "address": "Blooms Lane, Ormond Quay, Italian Quarter", "rating": 3, "review_count": 11, "BusinessID": "Dub00237", "latitude": 53.3465309143, "website": "", "city": "Dublin", "longitude": -6.26690626144}, {"name": "Terra Madre Cafe restaurant", "category": ["Italian"], "address": "13A Bachelors Walk, Dublin 1, City Centre North", "rating": 5, "review_count": 12, "BusinessID": "Dub00238", "latitude": 53.3470115662, "website": "http://www.terramadre.ie/", "city": "Dublin", "longitude": -6.26189517975}, {"name": "Sophie's restaurant", "category": ["European", "Italian", "Pizzeria"], "address": "33 Harcourt Street, Dublin, City Centre South", "rating": 3, "review_count": 7, "BusinessID": "Dub00239", "latitude": 53.3351821899, "website": "http://sophies.ie/", "city": "Dublin", "longitude": -6.2635436058}, {"name": "Chorus Cafe restaurant", "category": ["Cafe", "Cheap Eats"], "address": "7 Scarlet RowFishamble Streetle Bar, City Centre South", "rating": 4, "review_count": 7, "BusinessID": "Dub00240", "latitude": 53.3447113037, "website": "", "city": "Dublin", "longitude": -6.26996421814}, {"name": "Cafe Azteca restaurant", "category": ["Mexican", "Tapas", "Tex Mex"], "address": "19 - 21 Lord Edward Street, Dublin 2, City Centre South", "rating": 4, "review_count": 28, "BusinessID": "Dub00241", "latitude": 53.3436889648, "website": "http://www.azteca.ie", "city": "Dublin", "longitude": -6.26937389374}, {"name": "Urban Picnic - Market Arcade restaurant", "category": ["Breakfast", "Cafe"], "address": "South Great Georges Street, City Centre South", "rating": 4, "review_count": 8, "BusinessID": "Dub00242", "latitude": 53.342502594, "website": "", "city": "Dublin", "longitude": -6.26453971863}, {"name": "Alponte Cafe restaurant", "category": ["Cafe"], "address": "Duke Street, City Centre South", "rating": 4, "review_count": 1, "BusinessID": "Dub00243", "latitude": 53.3418884277, "website": "", "city": "Dublin", "longitude": -6.25892591476}, {"name": "The Epicenter Bar Cafe & Venue restaurant", "category": ["Casual Dining", "Pub Grub"], "address": "East Point Business Park, Block E, East Wall Road, City Centre North", "rating": 0, "review_count": 0, "BusinessID": "Dub00244", "latitude": 53.3562393188, "website": "http://www.theepicenter-venue.com/", "city": "Dublin", "longitude": -6.23141527176}, {"name": "Oil Can Harry's restaurant", "category": ["European", "Steak"], "address": "Lower Mount Street dublin, City Centre South", "rating": 4, "review_count": 2, "BusinessID": "Dub00245", "latitude": 53.3385810852, "website": "http://oilcanharrys.ie/", "city": "Dublin", "longitude": -6.24338293076}, {"name": "MV Cill Airne Boat Bar & Restaurant", "category": ["Bistro", "Coeliac options", "Gastro Pub"], "address": "MV Cill Airne, North Wall Quay, Dublin 1, IFSC", "rating": 4, "review_count": 38, "BusinessID": "Dub00246", "latitude": 53.3472518921, "website": "http://www.mvcillairne.com/", "city": "Dublin", "longitude": -6.23557710648}, {"name": "Bennys Chicken restaurant", "category": ["American", "Casual Dining", "Cheap Eats"], "address": "34 Bolton Street, City Centre North", "rating": 0, "review_count": 0, "BusinessID": "Dub00247", "latitude": 0.0, "website": "", "city": "Dublin", "longitude": 0.0}, {"name": "Iskanders Kebabs restaurant", "category": ["Casual Dining", "Cheap Eats"], "address": "30 Dame Street, Dublin 2, City Centre South", "rating": 3, "review_count": 12, "BusinessID": "Dub00248", "latitude": 53.3441734314, "website": "", "city": "Dublin", "longitude": -6.26482343674}, {"name": "The Halal Sultan Restaurant", "category": ["Cheap Eats", "Mediterranean"], "address": "73 South Great Georges Street, City Centre South", "rating": 4, "review_count": 3, "BusinessID": "Dub00249", "latitude": 53.3426895142, "website": "", "city": "Dublin", "longitude": -6.26447820663}, {"name": "Odessa restaurant", "category": ["Brasserie"], "address": "14 Dame Court, Dublin, City Centre South", "rating": 4, "review_count": 457, "BusinessID": "Dub00250", "latitude": 53.3435401917, "website": "http://www.odessa.ie", "city": "Dublin", "longitude": -6.26383781433}, {"name": "Sweet Nosh restaurant", "category": ["Bakery", "Cafe", "Italian"], "address": "Unit 1, Chatham St., St Stephens Green", "rating": 4, "review_count": 2, "BusinessID": "Dub00251", "latitude": 0.0, "website": "https://www.facebook.com/SantoroClan", "city": "Dublin", "longitude": 0.0}, {"name": "Arthurs Bar restaurant", "category": ["Gastro Pub", "Irish"], "address": "St James's Gate, City Centre South", "rating": 0, "review_count": 0, "BusinessID": "Dub00252", "latitude": 0.0, "website": "http://www.guinness-storehouse.com", "city": "Dublin", "longitude": 0.0}, {"name": "The Bell and Pot restaurant", "category": ["Breakfast", "Cafe", "Casual Dining", "Delicatessen", "Irish", "Vegetarian"], "address": "Mercer Street (beside travelodge), Stephen's Green, Dublin 2, St Stephens Green", "rating": 3, "review_count": 11, "BusinessID": "Dub00253", "latitude": 53.3383865356, "website": "https://www.facebook.com/thebellandpot", "city": "Dublin", "longitude": -6.2645740509}, {"name": "The Black Sheep (Dublin) restaurant", "category": ["Gastro Pub", "Pub Grub"], "address": "61 Capel Street, Dublin, City Centre North", "rating": 3, "review_count": 4, "BusinessID": "Dub00254", "latitude": 0.0, "website": "", "city": "Dublin", "longitude": 0.0}, {"name": "Drury Buildings restaurant", "category": ["Brunch", "Casual Dining", "Cocktails", "European", "Irish", "Wine Bar"], "address": "52-55 Drury St, Dublin 2, City Centre South", "rating": 4, "review_count": 7, "BusinessID": "Dub00255", "latitude": 53.3419303894, "website": "https://www.facebook.com/pages/Drury-Building/596231350425799", "city": "Dublin", "longitude": -6.2633228302}, {"name": "Fontana Cafe Restaurant", "category": ["American", "Asian", "Asian Fusion", "Bakery", "Brazilian", "Breakfast", "Cafe", "Casual Dining", "Chinese", "Egyptian", "English", "Ethnic", "European", "Fast Food", "Fish", "French", "Greek", "Halal", "Indian", "Indonesian", "International", "Italian", "Kid's Menu", "Mediterranean", "Moroccan", "Pan Asian", "Persian", "Pizzeria", "Portuguese", "Seafood", "Spanish", "Steak", "Steak and Seafood", "Sunday Lunch", "Thai", "Turkish", "Vegetarian"], "address": "21 Camden Street Lower, Dublin 2, City Centre South", "rating": 2, "review_count": 6, "BusinessID": "Dub00256", "latitude": 0.0, "website": "", "city": "Dublin", "longitude": 0.0}, {"name": "La Pizza restaurant", "category": ["Cheap Eats", "Italian"], "address": "14/15 Upper O'Connell Street, City Centre North", "rating": 3, "review_count": 37, "BusinessID": "Dub00257", "latitude": 53.3521156311, "website": "", "city": "Dublin", "longitude": -6.26113414764}, {"name": "The Bank on College Green restaurant", "category": ["Breakfast", "Cocktails", "Coeliac options", "European", "Gastro Pub", "Girls Night Out", "Irish", "Pub Grub", "Sunday Lunch", "Traditional Irish", "Vegetarian", "Wine Bar"], "address": "20-22 College Green, City Centre South", "rating": 4, "review_count": 107, "BusinessID": "Dub00258", "latitude": 53.344329834, "website": "http://www.bankoncollegegreen.com", "city": "Dublin", "longitude": -6.26147699356}, {"name": "The Silk Road Cafe restaurant", "category": ["Cheap Eats", "Ethnic", "Mediterranean"], "address": "The Chester Beatty Library, Dublin Castle, City Centre South", "rating": 4, "review_count": 24, "BusinessID": "Dub00259", "latitude": 53.3439178467, "website": "http://www.silkroadcafe.ie", "city": "Dublin", "longitude": -6.26791477203}, {"name": "Govindas Restaurant (Aungier Street)", "category": ["Casual Dining", "Coeliac options", "Healthy Eating", "Vegetarian"], "address": "4 Aungier Street, Dublin 2, City Centre South", "rating": 4, "review_count": 56, "BusinessID": "Dub00260", "latitude": 53.3401184082, "website": "http://www.govindas.ie/", "city": "Dublin", "longitude": -6.26557588577}, {"name": "Rhubarb Cafe Deli restaurant", "category": ["Breakfast", "Brunch"], "address": "1 Lower Pembroke Street, City Centre South", "rating": 0, "review_count": 0, "BusinessID": "Dub00261", "latitude": 0.0, "website": "", "city": "Dublin", "longitude": 0.0}, {"name": "Bear restaurant", "category": ["BBQ", "Irish", "Steak"], "address": "35 South William Street, Dublin 2, City Centre South", "rating": 3, "review_count": 74, "BusinessID": "Dub00262", "latitude": 0.0, "website": "http://www.joburger.ie/", "city": "Dublin", "longitude": 0.0}, {"name": "Inn on the Green @ The Fitzwilliam Hotel restaurant", "category": ["American", "Casual Dining", "Gastro Pub", "International", "Pub Grub", "Steak", "Sunday Lunch", "Vegetarian"], "address": "Fitzwilliam Dublin Hotel, St. Stephen's Green, St Stephens Green", "rating": 0, "review_count": 0, "BusinessID": "Dub00263", "latitude": 0.0, "website": "http://www.fitzwilliamhoteldublin.com/inn_on_the_green.html", "city": "Dublin", "longitude": 0.0}, {"name": "Avoca Cafe (Suffolk Street) restaurant", "category": ["Cheap Eats", "Irish"], "address": "Avoca, 11 Suffolk Street, City Centre South", "rating": 4, "review_count": 141, "BusinessID": "Dub00264", "latitude": 53.3434791565, "website": "http://www.avoca.ie", "city": "Dublin", "longitude": -6.25987911224}, {"name": "Goose on the Loose restaurant", "category": ["Brunch", "Cafe", "Casual Dining", "Crepes", "Greek", "Irish", "Mediterranean", "Vegetarian"], "address": "2 Kevin Street Lower, City Centre South", "rating": 3, "review_count": 1, "BusinessID": "Dub00265", "latitude": 53.337436676, "website": "https://www.facebook.com/pages/Goose-On-The-Loose/500903496609461/", "city": "Dublin", "longitude": -6.26607275009}, {"name": "The Forum Bar restaurant", "category": ["Cheap Eats", "Pub Grub"], "address": "Lord Edward Street, City Centre South", "rating": 0, "review_count": 0, "BusinessID": "Dub00266", "latitude": 53.3440818787, "website": "http://www.regencyhotels.com", "city": "Dublin", "longitude": -6.26825809479}, {"name": "The Pig and Heifer restaurant", "category": ["Cafe", "Cheap Eats"], "address": "2 Charlotte Way, Harcourt Hall, City Centre South", "rating": 4, "review_count": 8, "BusinessID": "Dub00267", "latitude": 53.3336906433, "website": "http://www.pigandheifer.ie/", "city": "Dublin", "longitude": -6.2645778656}, {"name": "Wagamama restaurant", "category": ["Casual Dining", "Cheap Eats", "Healthy Eating", "Japanese"], "address": "St Stephen's Green Centre, South King St, Dublin 2, City Centre South", "rating": 4, "review_count": 545, "BusinessID": "Dub00268", "latitude": 53.3404273987, "website": "http://www.wagamama.ie", "city": "Dublin", "longitude": -6.2627491951}, {"name": "Govindas Restaurant (Abbey Street)", "category": ["Healthy Eating", "Vegetarian"], "address": "83 Middle Abbey Street, City Centre North", "rating": 4, "review_count": 52, "BusinessID": "Dub00269", "latitude": 53.3475418091, "website": "http://www.govindas.ie/", "city": "Dublin", "longitude": -6.26652002335}, {"name": "The Pig and Heifer (Pearse st) restaurant", "category": ["Cafe", "Casual Dining", "European"], "address": "151 Pearse st, City Centre South", "rating": 4, "review_count": 2, "BusinessID": "Dub00270", "latitude": 53.3443145752, "website": "www.pigandheifer.ie", "city": "Dublin", "longitude": -6.25064563751}, {"name": "Metro Cafe restaurant", "category": ["Cafe", "Cheap Eats"], "address": "43 South William Street, South William Street", "rating": 4, "review_count": 62, "BusinessID": "Dub00271", "latitude": 53.3418083191, "website": "", "city": "Dublin", "longitude": -6.26283979416}, {"name": "Gallaghers Boxty House restaurant", "category": ["Gastro Pub", "Irish", "Kid's Menu", "Traditional Irish"], "address": "20-21 Temple Bar, Dublin 2, City Centre South", "rating": 4, "review_count": 124, "BusinessID": "Dub00272", "latitude": 53.3456115723, "website": "http://www.boxtyhouse.ie", "city": "Dublin", "longitude": -6.26385879517}, {"name": "The Bakehouse Bakery & Eatery restaurant", "category": ["Irish", "Traditional Irish"], "address": "6 Bachelors Walk, City Centre South", "rating": 4, "review_count": 9, "BusinessID": "Dub00273", "latitude": 0.0, "website": "http://the-bakehouse.ie/", "city": "Dublin", "longitude": 0.0}, {"name": "Cafe Irie restaurant", "category": ["Casual Dining"], "address": "11 Fownes street, le Bar, City Centre South", "rating": 4, "review_count": 49, "BusinessID": "Dub00274", "latitude": 53.3452987671, "website": "", "city": "Dublin", "longitude": -6.26281881332}, {"name": "Bison Bar restaurant", "category": ["BBQ"], "address": "11 Wellington Quay, Dublin 2, City Centre South", "rating": 5, "review_count": 7, "BusinessID": "Dub00275", "latitude": 53.3453712463, "website": "http://www.bisonbar.ie/", "city": "Dublin", "longitude": -6.26627969742}, {"name": "Seven Wonders Coffee Bar restaurant", "category": ["Cafe", "Healthy Eating"], "address": "Aston Quay, City Centre North", "rating": 4, "review_count": 2, "BusinessID": "Dub00276", "latitude": 53.3464393616, "website": "http://www.sevenwonders.ie/", "city": "Dublin", "longitude": -6.26054382324}, {"name": "The Galway Hooker restaurant", "category": ["Carvery", "Casual Dining", "Pub Grub"], "address": "Heuston Station, City Centre South", "rating": 1, "review_count": 2, "BusinessID": "Dub00277", "latitude": 53.3465538025, "website": "http://www.galwayhooker.ie/", "city": "Dublin", "longitude": -6.2923874855}, {"name": "Kilkenny Restaurant & Cafe", "category": ["Irish"], "address": "1st Floor, 5/6 Nassau Street, City Centre South", "rating": 3, "review_count": 36, "BusinessID": "Dub00278", "latitude": 53.3423156738, "website": "http://www.kilkennyshop.com", "city": "Dublin", "longitude": -6.25589847565}, {"name": "OBriens Ferryman Inn restaurant", "category": ["Cheap Eats", "Pub Grub"], "address": "Sir John Rogerson Quay, City Centre South", "rating": 3, "review_count": 1, "BusinessID": "Dub00279", "latitude": 53.3458366394, "website": "http://www.ferryman-hotel.com", "city": "Dublin", "longitude": -6.23684406281}, {"name": "The Chapterhouse Cafe restaurant", "category": ["Bakery", "Brunch", "Cafe", "Casual Dining", "Healthy Eating"], "address": "Dublin Writers\u2019 Museum, 18 Parnell Square, City Centre North", "rating": 0, "review_count": 0, "BusinessID": "Dub00280", "latitude": 0.0, "website": "http://www.madebymary.ie/Chapterhouse.htm", "city": "Dublin", "longitude": 0.0}, {"name": "Howl At The Moon restaurant", "category": ["Cheap Eats", "Pizzeria", "Pub Grub"], "address": "Lower Mount Street, City Centre South", "rating": 3, "review_count": 4, "BusinessID": "Dub00281", "latitude": 53.3385810852, "website": "http://www.capitalbars.com/", "city": "Dublin", "longitude": -6.24338340759}, {"name": "Havana Tapas Bar restaurant", "category": ["Cheap Eats", "Tapas"], "address": "Georges Street, Dublin 2 , City Centre South", "rating": 4, "review_count": 180, "BusinessID": "Dub00282", "latitude": 53.3432502747, "website": "http://www.havana.ie/", "city": "Dublin", "longitude": -6.26465320587}, {"name": "The Woollen Mills restaurant", "category": ["Breakfast", "Irish", "Turkish", "Vegetarian"], "address": "42 Ormond Quay Lower,  Dublin 1, City Centre North", "rating": 4, "review_count": 9, "BusinessID": "Dub00283", "latitude": 53.3463020325, "website": "", "city": "Dublin", "longitude": -6.26513195038}, {"name": "The Lombard Pub & Townhouse restaurant", "category": ["American", "Brunch", "European", "Fish", "Healthy Eating", "International", "Irish", "Steak"], "address": "1 Lombard Street, City Centre South", "rating": 0, "review_count": 0, "BusinessID": "Dub00284", "latitude": 0.0, "website": "http://www.thesmithgroup.ie/thelombard/food.html", "city": "Dublin", "longitude": 0.0}, {"name": "Gilroy's @ Guinness Storehouse restaurant", "category": ["Bistro", "Traditional Irish"], "address": "St James's Gate, City Centre South", "rating": 3, "review_count": 2, "BusinessID": "Dub00285", "latitude": 53.3417816162, "website": "http://www.guinness-storehouse.com/", "city": "Dublin", "longitude": -6.28650808334}, {"name": "Deli Suz restaurant", "category": ["Cafe", "Delicatessen"], "address": "Blessington Street, City Centre North", "rating": 5, "review_count": 1, "BusinessID": "Dub00286", "latitude": 53.3567771912, "website": "http://www.facebook.com/delisuz", "city": "Dublin", "longitude": -6.26813697815}, {"name": "Beshoff Restaurant", "category": ["Breakfast", "Casual Dining", "Coeliac options", "Fish", "Fish & Chips", "Irish", "Kid's Menu", "Traditional Irish"], "address": "6. Upper O'Connell Street, O'Connell St", "rating": 0, "review_count": 0, "BusinessID": "Dub00287", "latitude": 0.0, "website": "http://www.beshoffrestaurant.com/", "city": "Dublin", "longitude": 0.0}, {"name": "The Oval Bar restaurant", "category": ["Casual Dining", "Cocktails", "English", "Irish", "Pub Grub"], "address": "78 Middle Abbey Street, City Centre North", "rating": 4, "review_count": 16, "BusinessID": "Dub00288", "latitude": 53.3481903076, "website": "http://www.theovalbar.com/", "city": "Dublin", "longitude": -6.26072597504}, {"name": "Mes Amis restaurant", "category": ["Bistro"], "address": "37, Upper Abbey Street, City Centre North", "rating": 3, "review_count": 2, "BusinessID": "Dub00289", "latitude": 0.0, "website": "", "city": "Dublin", "longitude": 0.0}, {"name": "Budapest Restaurant, Wine & Tapas Bar", "category": ["European", "Hungarian", "International", "Tapas", "Wine Bar"], "address": "61 Bolton Street (end of Capel Street), City Centre North", "rating": 5, "review_count": 1, "BusinessID": "Dub00290", "latitude": 53.3511199951, "website": "http://www.budapestrestaurant.ie/", "city": "Dublin", "longitude": -6.27030611038}, {"name": "The Blue Room - DIT restaurant", "category": ["European"], "address": "Cathal Brugha St, Dublin 1 , City Centre North", "rating": 0, "review_count": 0, "BusinessID": "Dub00291", "latitude": 53.3521461487, "website": "", "city": "Dublin", "longitude": -6.26013660431}, {"name": "Caffe Parigi restaurant", "category": ["Casual Dining", "French", "Italian"], "address": "17 - 19 Sir John Rogerson's Quay, City Centre South", "rating": 4, "review_count": 9, "BusinessID": "Dub00292", "latitude": 53.3462486267, "website": "http://caffeparigi.com/", "city": "Dublin", "longitude": -6.24383926392}, {"name": "Toffoli restaurant", "category": ["Cafe", "Pizzeria"], "address": "34 Castle Street, Dublin 2, City Centre South", "rating": 4, "review_count": 14, "BusinessID": "Dub00293", "latitude": 53.3471984863, "website": "", "city": "Dublin", "longitude": -6.25920009613}, {"name": "F.X. BUCKLEY Steakhouse Pembroke Street  restaurant", "category": ["Healthy Eating", "Seafood", "Steak", "Steak and Seafood"], "address": "1A Lower Pembroke Street, Dublin 2, City Centre South", "rating": 4, "review_count": 152, "BusinessID": "Dub00294", "latitude": 53.3372383118, "website": "http://www.fxbuckley.ie", "city": "Dublin", "longitude": -6.2516169548}, {"name": "No. 23 Restaurant", "category": ["Fine Dining"], "address": "The Gresham Hotel, 23 O Connell Street , Dublin , O'Connell St", "rating": 0, "review_count": 0, "BusinessID": "Dub00295", "latitude": 53.3516349792, "website": "http://www.gresham-hotels-dublin.com/", "city": "Dublin", "longitude": -6.26031494141}, {"name": "The Bakery restaurant", "category": ["Brunch", "Cafe", "Cheap Eats"], "address": "Pudding Row, 3 Essex St W, City Centre South", "rating": 0, "review_count": 0, "BusinessID": "Dub00296", "latitude": 0.0, "website": "", "city": "Dublin", "longitude": 0.0}, {"name": "New Millennium Chinese Restaurant", "category": ["Chinese"], "address": "51 South King Street, Dublin 2, City Centre South", "rating": 3, "review_count": 72, "BusinessID": "Dub00297", "latitude": 53.3402519226, "website": "www.newmillennium.ie", "city": "Dublin", "longitude": -6.26154184341}, {"name": "Stir Restaurant Dublin City Centre", "category": ["European", "Irish", "Kid's Menu"], "address": "Maldron Hotel Cardiff Lane, Sir John Rogerson's Quay, City Centre South", "rating": 4, "review_count": 1, "BusinessID": "Dub00298", "latitude": 53.3465270996, "website": "http://www.maldronhotels.com/hotel-cardiff-lane/index.html", "city": "Dublin", "longitude": -6.24596500397}, {"name": "Graingers restaurant", "category": ["Cheap Eats", "Pub Grub"], "address": "51 Talbot Street, City Centre North", "rating": 4, "review_count": 3, "BusinessID": "Dub00299", "latitude": 53.351398468, "website": "", "city": "Dublin", "longitude": -6.2503194809}, {"name": "Sure Bar @ Radisson Blu Royal Hotel restaurant", "category": ["Casual Dining"], "address": "Golden Lane, Dublin 2 , City Centre South", "rating": 3, "review_count": 5, "BusinessID": "Dub00300", "latitude": 53.3405952454, "website": "http://www.radissonblu.ie/royalhotel-dublin/dining", "city": "Dublin", "longitude": -6.26895427704}, {"name": "Terrazzo Italia restaurant", "category": ["Casual Dining", "Italian", "Pizzeria"], "address": "Powerscourt Centre, 59 William Street South, Dublin 2, City Centre South", "rating": 2, "review_count": 2, "BusinessID": "Dub00301", "latitude": 53.3441047668, "website": "http://www.terrazzoitalie.com/", "city": "Dublin", "longitude": -6.26749372482}, {"name": "Bad Ass Cafe restaurant", "category": ["American", "Casual Dining", "Cheap Eats", "Kid's Menu", "Pizzeria"], "address": "Crown Alley, Temple Bar, Dublin 2, City Centre South", "rating": 3, "review_count": 178, "BusinessID": "Dub00302", "latitude": 53.3453292847, "website": "http://www.badassdublin.com/", "city": "Dublin", "longitude": -6.26349401474}, {"name": "Nude Cafe (Georges Quay) restaurant", "category": ["Cafe", "Cheap Eats", "Healthy Eating"], "address": "George's Quay Plaza, Georges Quay, City Centre South", "rating": 2, "review_count": 3, "BusinessID": "Dub00303", "latitude": 53.3475532532, "website": "http://www.nude.ie", "city": "Dublin", "longitude": -6.25358104706}, {"name": "Balfe's restaurant", "category": ["Brasserie", "European", "Irish"], "address": "The Westbury Hotel, The Westbury Mall, Balfe Street, Dublin 2, City Centre South", "rating": 4, "review_count": 1, "BusinessID": "Dub00304", "latitude": 53.3411445618, "website": "http://balfes.ie/", "city": "Dublin", "longitude": -6.26148700714}, {"name": "Aurora Bar and Grill restaurant", "category": ["Gastro Pub", "Irish", "Kid's Menu", "Seafood", "Steak"], "address": "Upper Dorset Street, City Centre North", "rating": 4, "review_count": 11, "BusinessID": "Dub00305", "latitude": 53.3551597595, "website": "http://www.theaurora.ie", "city": "Dublin", "longitude": -6.26603412628}, {"name": "The Bull & Castle and F.X. Buckley Steakhouse  restaurant", "category": ["Gastro Pub", "Healthy Eating", "Pub Grub", "Seafood", "Steak", "Steak and Seafood"], "address": "5-7 Lord Edward Street, Christchurch, Dublin 8, City Centre South", "rating": 4, "review_count": 177, "BusinessID": "Dub00306", "latitude": 53.3432502747, "website": "http://www.fxbuckley.ie", "city": "Dublin", "longitude": -6.26894521713}, {"name": "Robert Reade Public House restaurant", "category": ["Pub Grub"], "address": "19 Store Street, City Centre North", "rating": 0, "review_count": 0, "BusinessID": "Dub00307", "latitude": 0.0, "website": "http://www.iolfree.ie/~novaki/reade.htm", "city": "Dublin", "longitude": 0.0}, {"name": "The Mint Bar restaurant", "category": ["Cheap Eats", "European", "International"], "address": "The Westin Hotel, College Green, Dublin, City Centre South", "rating": 4, "review_count": 28, "BusinessID": "Dub00308", "latitude": 53.344329834, "website": "http://www.thewestindublin.com/the-mint-bar", "city": "Dublin", "longitude": -6.26147699356}, {"name": "The Restaurant", "category": ["Bakery", "Breakfast", "Brunch", "Cafe", "Coeliac options", "European", "French", "Healthy Eating", "International", "Kid's Menu", "Sunday Lunch", "Vegetarian"], "address": "Brown Thomas Dublin, 88-95 Grafton Street, Dublin 2, City Centre South", "rating": 0, "review_count": 0, "BusinessID": "Dub00309", "latitude": 0.0, "website": "", "city": "Dublin", "longitude": 0.0}, {"name": "The Old Stand restaurant", "category": ["Cheap Eats", "Pub Grub"], "address": "37 Exchequer Street, City Centre South", "rating": 4, "review_count": 10, "BusinessID": "Dub00310", "latitude": 53.3431091309, "website": "http://www.theoldstandpub.com", "city": "Dublin", "longitude": -6.26345157623}, {"name": "The Long Stone restaurant", "category": ["Pub Grub"], "address": "Townsend Street, City Centre South", "rating": 4, "review_count": 10, "BusinessID": "Dub00311", "latitude": 53.3459014893, "website": "http://www.thelongstone.com/", "city": "Dublin", "longitude": -6.25555086136}, {"name": " Plaza Bar & Grill @  BEST WESTERN PLUS Academy Plaza Hotel restaurant", "category": ["Bistro", "Brasserie", "Brunch", "Healthy Eating", "International", "Irish", "Mediterranean", "Pub Grub", "Steak and Seafood"], "address": "Findlater Place, Off O'Connell St, City Centre North", "rating": 4, "review_count": 4, "BusinessID": "Dub00312", "latitude": 53.3510093689, "website": "http://www.academyplazahotel.ie/", "city": "Dublin", "longitude": -6.2605009079}, {"name": "Citi Bar restaurant", "category": ["Casual Dining", "Tapas"], "address": "46-49 Dame Street, City Centre South", "rating": 3, "review_count": 8, "BusinessID": "Dub00313", "latitude": 53.3443527222, "website": "http://www.dublincitihotel.com/", "city": "Dublin", "longitude": -6.26525402069}, {"name": "Capitol Lounge restaurant", "category": ["Pub Grub"], "address": "Aungier St, City Centre South", "rating": 4, "review_count": 2, "BusinessID": "Dub00314", "latitude": 53.3413391113, "website": "http://www.capitol.ie", "city": "Dublin", "longitude": -6.26525402069}, {"name": "The Ante Room restaurant", "category": ["Seafood", "Steak", "Steak and Seafood", "Vegetarian"], "address": "The Georgian House Hotel,, 20 Lower Baggot Street, City Centre South", "rating": 0, "review_count": 0, "BusinessID": "Dub00315", "latitude": 0.0, "website": "", "city": "Dublin", "longitude": 0.0}, {"name": "In Cahoots Cafe, Guesthouse & Apartments restaurant", "category": ["Breakfast", "Cafe", "Cheap Eats", "Healthy Eating", "Irish"], "address": "166-168 Parnell Street, City Centre North", "rating": 4, "review_count": 7, "BusinessID": "Dub00316", "latitude": 53.3509407043, "website": "http://www.kingfisherdublin.com/index.html", "city": "Dublin", "longitude": -6.26553297043}, {"name": "Pizza E Porchetta restaurant", "category": ["Pizzeria"], "address": "The Malting Tower, Grand Canal Quay, Dublin 2 , IFSC", "rating": 3, "review_count": 5, "BusinessID": "Dub00317", "latitude": 53.3400917053, "website": "", "city": "Dublin", "longitude": -6.23923301697}, {"name": "Boyers & Co Restaurant", "category": ["Breakfast", "Sunday Lunch"], "address": "19-22 North Earl Street, City Centre North", "rating": 0, "review_count": 0, "BusinessID": "Dub00318", "latitude": 53.3499526978, "website": "http://www.boyers.ie/restaurant.htm", "city": "Dublin", "longitude": -6.25900173187}, {"name": "The Lotts Cafe Bar restaurant", "category": ["Cheap Eats", "European", "Gastro Pub"], "address": "9 Lower Liffey Street, City Centre North", "rating": 4, "review_count": 62, "BusinessID": "Dub00319", "latitude": 53.3473014832, "website": "http://www.thelottscafebar.com", "city": "Dublin", "longitude": -6.26293706894}, {"name": "Little Caesars Pizza restaurant", "category": ["Casual Dining", "Italian", "Pizzeria"], "address": "5 Balfe Street, Near Westbury Hotel, Dublin 2, City Centre South", "rating": 4, "review_count": 55, "BusinessID": "Dub00320", "latitude": 53.3409614563, "website": "http://www.littlecaesars.ie/", "city": "Dublin", "longitude": -6.26167058945}, {"name": "Tir Na Nog Caife City Hall restaurant", "category": ["Cafe"], "address": "City Hall, Dame St, City Centre South", "rating": 4, "review_count": 1, "BusinessID": "Dub00321", "latitude": 53.3441734314, "website": "http://www.tirnanog-caife.ie", "city": "Dublin", "longitude": -6.26478052139}, {"name": "Mandarin House restaurant", "category": ["Chinese"], "address": "179 Parnell Street, City Centre North", "rating": 4, "review_count": 32, "BusinessID": "Dub00322", "latitude": 53.351234436, "website": "", "city": "Dublin", "longitude": -6.26432943344}, {"name": "Denis Massey@The Front Lounge restaurant", "category": ["Brunch", "Casual Dining", "Kid's Menu", "Steak and Seafood"], "address": "Parliament Street, City Centre South", "rating": 3, "review_count": 7, "BusinessID": "Dub00323", "latitude": 53.3445968628, "website": "The Front Lounge", "city": "Dublin", "longitude": -6.26748561859}, {"name": "The Bald Barista restaurant", "category": ["Cafe", "Cheap Eats"], "address": "Avalon House, 55 Aungier Street, City Centre South", "rating": 3, "review_count": 18, "BusinessID": "Dub00324", "latitude": 53.3395805359, "website": "http://www.thebaldbarista.com", "city": "Dublin", "longitude": -6.26587677002}, {"name": "Third Floor Espresso restaurant", "category": ["Cafe"], "address": "Entrance to Twisted Pepper, 54 Middle Abbey Street, City Centre North", "rating": 4, "review_count": 4, "BusinessID": "Dub00325", "latitude": 53.3480072021, "website": "http://www.thirdfloorespresso.com/", "city": "Dublin", "longitude": -6.26235675812}, {"name": "The Restaurant @ Marks and Spencer", "category": ["Casual Dining", "Cheap Eats"], "address": "Marks and Spencer, Grafton Street, City Centre South", "rating": 4, "review_count": 57, "BusinessID": "Dub00326", "latitude": 53.3421859741, "website": "http://www.marksandspencer.com", "city": "Dublin", "longitude": -6.25976085663}, {"name": "Milano (Baggot Street) restaurant", "category": ["Cheap Eats", "Healthy Eating", "Italian", "Kid's Menu", "Pizzeria"], "address": "1 - 2 Haddington Road, Dublin 4, City Centre South", "rating": 4, "review_count": 136, "BusinessID": "Dub00327", "latitude": 53.3340797424, "website": "http://www.milano.ie", "city": "Dublin", "longitude": -6.24506187439}, {"name": "House Dublin restaurant", "category": ["Coeliac options", "European", "French", "International", "Irish", "Italian", "Mediterranean"], "address": "27 Lower Leeson Street, City Centre South", "rating": 2, "review_count": 1, "BusinessID": "Dub00328", "latitude": 53.3340682983, "website": "www.housedublin.ie", "city": "Dublin", "longitude": -6.25517606735}, {"name": "Super Miss Sue restaurant", "category": ["Seafood"], "address": "Units 2-3 Drury Street Car Park, Dublin, City Centre South", "rating": 3, "review_count": 9, "BusinessID": "Dub00329", "latitude": 53.3454437256, "website": "http://supermisssue.com/#Home", "city": "Dublin", "longitude": -6.26047182083}, {"name": "The Harbourmaster Restaurant & Bar", "category": ["European", "Gastro Pub"], "address": "Custom House Dock, I.F.S.C Dublin 1, IFSC", "rating": 4, "review_count": 114, "BusinessID": "Dub00330", "latitude": 53.3508338928, "website": "http://www.harbourmaster.ie", "city": "Dublin", "longitude": -6.2406206131}, {"name": "Bar Italia by Dunne & Crescenzi restaurant", "category": ["Breakfast", "Brunch", "Cafe", "Casual Dining", "Coeliac options", "Italian", "Pizzeria", "Vegetarian", "Wine Bar"], "address": "The Italian Quarter, 26 Blooms Lane , Lower Ormond Quay, Italian Quarter", "rating": 3, "review_count": 165, "BusinessID": "Dub00331", "latitude": 53.3461494446, "website": "http://www.baritalia.ie", "city": "Dublin", "longitude": -6.26756095886}, {"name": "Coda Eatery Grill restaurant", "category": ["European"], "address": "The Gibson Hotel, Point Village, City Centre North", "rating": 2, "review_count": 1, "BusinessID": "Dub00332", "latitude": 53.3483467102, "website": "http://www.thegibsonhotel.ie", "city": "Dublin", "longitude": -6.22753143311}, {"name": "Centre Stage Cafe restaurant", "category": ["Cafe", "Cheap Eats"], "address": "6 Parliament Street, City Centre South", "rating": 3, "review_count": 3, "BusinessID": "Dub00333", "latitude": 53.3445320129, "website": "", "city": "Dublin", "longitude": -6.26729249954}, {"name": "The Green Hen restaurant", "category": ["Bistro", "French", "Seafood"], "address": "33 Exchequer street, Dublin 2, City Centre South", "rating": 4, "review_count": 141, "BusinessID": "Dub00334", "latitude": 53.3430252075, "website": "http://www.thegreenhen.com", "city": "Dublin", "longitude": -6.26326370239}, {"name": "Munchies Sir J R Quay restaurant", "category": ["Cafe"], "address": "Sir John Rogersons Quay, City Centre South", "rating": 4, "review_count": 2, "BusinessID": "Dub00335", "latitude": 53.3460617065, "website": "www.munchies.ie", "city": "Dublin", "longitude": -6.23881626129}, {"name": "C Central Bar @ The Camden Court Hotel restaurant", "category": ["Cheap Eats", "Pub Grub"], "address": "The Camden Court Hotel, Lower Camden Street, Dublin 2, City Centre South", "rating": 3, "review_count": 12, "BusinessID": "Dub00336", "latitude": 53.3339500427, "website": "http://www.camdencourthotel.com", "city": "Dublin", "longitude": -6.26491069794}, {"name": "Restaurant FortyOne restaurant", "category": ["European", "Fine Dining", "International"], "address": "Residence, 41 St. Stephen\u00b4s Green, Dublin , City Centre South", "rating": 5, "review_count": 25, "BusinessID": "Dub00337", "latitude": 53.3383789062, "website": "http://www.restaurantfortyone.ie/", "city": "Dublin", "longitude": -6.25560998917}, {"name": "The GreenHouse restaurant", "category": ["Fine Dining", "International"], "address": "Joshua House, Dublin City Centre, Dawson Street", "rating": 4, "review_count": 24, "BusinessID": "Dub00338", "latitude": 53.3425254822, "website": "http://www.thegreenhouserestaurant.ie", "city": "Dublin", "longitude": -6.25766372681}, {"name": "South William restaurant", "category": ["Pub Grub"], "address": "52 South William Street, South William Street", "rating": 4, "review_count": 35, "BusinessID": "Dub00339", "latitude": 53.3426208496, "website": "http://www.southwilliam.ie", "city": "Dublin", "longitude": -6.26233577728}, {"name": "The Art of Coffee restaurant", "category": ["Cafe"], "address": "Altro Vetro Building, Pearse street, City Centre North", "rating": 5, "review_count": 7, "BusinessID": "Dub00340", "latitude": 53.3423156738, "website": "http://www.theartofcoffee.info/", "city": "Dublin", "longitude": -6.23866796494}, {"name": "Bachelor's Wok restaurant", "category": ["Thai"], "address": "22 Bachelor's Walk, Dublin 1, City Centre North", "rating": 5, "review_count": 2, "BusinessID": "Dub00341", "latitude": 53.3475799561, "website": "http://www.bwok.me/", "city": "Dublin", "longitude": -6.26002407074}, {"name": "Peploes Wine Bistro restaurant", "category": ["European", "Seafood", "Steak", "Wine Bar"], "address": "16 St Stephen's Green, Dublin , City Centre South", "rating": 4, "review_count": 271, "BusinessID": "Dub00342", "latitude": 53.3393287659, "website": "http://www.peploes.com/", "city": "Dublin", "longitude": -6.25748634338}, {"name": "Kaffe Moka restaurant", "category": ["Cafe", "Casual Dining"], "address": "39 South William Street, South William Street", "rating": 0, "review_count": 0, "BusinessID": "Dub00343", "latitude": 53.3409767151, "website": "", "city": "Dublin", "longitude": -6.26318120956}, {"name": "Staple Foods restaurant", "category": ["American", "Healthy Eating", "Irish", "Vegetarian"], "address": "Curved Street, City Centre South", "rating": 0, "review_count": 0, "BusinessID": "Dub00344", "latitude": 0.0, "website": "http://staplefoods.ie/", "city": "Dublin", "longitude": 0.0}, {"name": "Patrick Guilbaud restaurant", "category": ["Fine Dining", "French", "Organic"], "address": "21 Upper Merrion Street, Dublin, City Centre South", "rating": 4, "review_count": 115, "BusinessID": "Dub00345", "latitude": 53.3393592834, "website": "http://www.restaurantpatrickguilbaud.ie", "city": "Dublin", "longitude": -6.25235795975}, {"name": "Wilde - The Restaurant", "category": ["European", "Irish", "Seafood"], "address": "The Westbury Hotel, Grafton Street, Dublin 2, City Centre South", "rating": 4, "review_count": 86, "BusinessID": "Dub00346", "latitude": 53.3420181274, "website": "http://www.wildetherestaurant.com", "city": "Dublin", "longitude": -6.2599439621}, {"name": "Bruxelles restaurant", "category": ["Cheap Eats", "Pub Grub"], "address": "7-8 Harry Street Dublin 2, City Centre South", "rating": 3, "review_count": 16, "BusinessID": "Dub00347", "latitude": 53.3412513733, "website": "http://www.bruxelles.ie/", "city": "Dublin", "longitude": -6.26072645187}, {"name": "McGettigans Cookhouse and Bar restaurant", "category": ["American", "Casual Dining", "Fish", "Irish", "Seafood", "Steak", "Steak and Seafood"], "address": "Amiens Street, Dublin 1, City Centre North", "rating": 5, "review_count": 6, "BusinessID": "Dub00348", "latitude": 0.0, "website": "http://www.mcgettiganscookhouse.ie/", "city": "Dublin", "longitude": 0.0}, {"name": "Burgerlicious restaurant", "category": ["Casual Dining", "Gourmet Burger"], "address": "101 Upper Dorset Street, City Centre North", "rating": 0, "review_count": 0, "BusinessID": "Dub00349", "latitude": 53.3554229736, "website": "", "city": "Dublin", "longitude": -6.2659201622}, {"name": "TGI Friday (St Stephens Green ) restaurant", "category": ["American", "Casual Dining", "Girls Night Out"], "address": "St Stephens Green, Dublin 2, City Centre South", "rating": 3, "review_count": 212, "BusinessID": "Dub00350", "latitude": 53.3394508362, "website": "http://www.fridays.ie", "city": "Dublin", "longitude": -6.26119852066}, {"name": "Chesterfields Restaurant", "category": ["Breakfast", "Carvery", "International", "Sunday Lunch"], "address": "Ashling Hotel Dublin, Parkgate Street, Parkgate Street", "rating": 4, "review_count": 4, "BusinessID": "Dub00351", "latitude": 53.3479728699, "website": "http://www.ashlinghotel.ie", "city": "Dublin", "longitude": -6.29060935974}, {"name": "Konkan Indian Restaurant", "category": ["Indian"], "address": "46 Upper Clanbrassil Street, City Centre South", "rating": 5, "review_count": 60, "BusinessID": "Dub00352", "latitude": 53.3308334351, "website": "http://www.konkan.ie", "city": "Dublin", "longitude": -6.2754034996}, {"name": "D2 Coffee House restaurant", "category": ["Bistro", "Brunch", "Cafe", "Casual Dining", "European"], "address": "7 Georges Street, City Centre South", "rating": 0, "review_count": 0, "BusinessID": "Dub00353", "latitude": 0.0, "website": "", "city": "Dublin", "longitude": 0.0}, {"name": "Thomas Reads The Oak restaurant", "category": ["Cheap Eats", "Pub Grub"], "address": "Dame Street, City Centre South", "rating": 4, "review_count": 4, "BusinessID": "Dub00354", "latitude": 53.3442115784, "website": "http://www.oakbar.ie/content/trg/thomas/pages/about.htm", "city": "Dublin", "longitude": -6.26712083817}, {"name": "Shakes Milkshake Bar restaurant", "category": ["Cheap Eats"], "address": "15 College Green, City Centre South", "rating": 0, "review_count": 0, "BusinessID": "Dub00355", "latitude": 0.0, "website": "", "city": "Dublin", "longitude": 0.0}, {"name": "Georgian BBQ House restaurant", "category": ["BBQ"], "address": "1st floor, 74 talbot street, Dublin 1, City Centre North", "rating": 0, "review_count": 0, "BusinessID": "Dub00356", "latitude": 0.0, "website": "http://georgianbbqhouse.com/index.php", "city": "Dublin", "longitude": 0.0}, {"name": "Saagar Indian Restaurant", "category": ["Indian"], "address": "16 Harcourt Street, Dublin 2 , City Centre South", "rating": 4, "review_count": 96, "BusinessID": "Dub00357", "latitude": 53.3362808228, "website": "http://www.saagarindianrestaurants.com/", "city": "Dublin", "longitude": -6.26313018799}, {"name": "Cafe Seven restaurant", "category": ["Cafe", "European"], "address": "7 St. Andrew's Street, City Centre South", "rating": 3, "review_count": 7, "BusinessID": "Dub00358", "latitude": 53.3437995911, "website": "http://www.cafeseven.ie/index.html", "city": "Dublin", "longitude": -6.26149988174}, {"name": "Hunger's Mother restaurant", "category": ["Cafe"], "address": "11/14 Fenian St, City Centre South", "rating": 0, "review_count": 0, "BusinessID": "Dub00359", "latitude": 53.3415641785, "website": "", "city": "Dublin", "longitude": -6.24801015854}, {"name": "Brewers Dining Hall @ The Guinness Storehouse restaurant", "category": ["Traditional Irish"], "address": "St James's Gate, City Centre South", "rating": 0, "review_count": 0, "BusinessID": "Dub00360", "latitude": 0.0, "website": "http://www.guinness-storehouse.com", "city": "Dublin", "longitude": 0.0}, {"name": "Brewers Dining Hall @ The Guinness Storehouse restaurant", "category": ["Traditional Irish"], "address": "St James's Gate, City Centre South", "rating": 0, "review_count": 0, "BusinessID": "Dub00361", "latitude": 0.0, "website": "http://www.guinness-storehouse.com", "city": "Dublin", "longitude": 0.0}, {"name": "Alex Restaurant", "category": ["Brasserie", "Breakfast", "Casual Dining", "Coeliac options", "European", "International", "Irish", "Kid's Menu", "Seafood", "Steak", "Steak and Seafood"], "address": "Conrad Hotel, Earlsfort Terrace, Dublin 2, City Centre South", "rating": 4, "review_count": 40, "BusinessID": "Dub00362", "latitude": 53.3354187012, "website": "http://www.alexrestaurant.ie/", "city": "Dublin", "longitude": -6.25755119324}, {"name": "The Atrium Lounge restaurant", "category": ["Cheap Eats", "European", "Irish"], "address": "The Westin Hotel, College Green, Dublin, City Centre South", "rating": 4, "review_count": 22, "BusinessID": "Dub00363", "latitude": 53.344329834, "website": "http://www.thewestindublin.com/the-atrium-lounge", "city": "Dublin", "longitude": -6.26147699356}, {"name": "Mochaland Cafe restaurant", "category": ["Breakfast", "Mediterranean", "Tapas"], "address": "20 Lower Ormond Quay, City Centre North", "rating": 0, "review_count": 0, "BusinessID": "Dub00364", "latitude": 53.3463821411, "website": "https://www.facebook.com/pages/Mochaland-Cafe/207216702663914?fref=ts/", "city": "Dublin", "longitude": -6.26561021805}, {"name": "Forest Avenue restaurant", "category": ["European"], "address": "8 Sussex Terrace, Dublin 4, City Centre South", "rating": 5, "review_count": 3, "BusinessID": "Dub00365", "latitude": 0.0, "website": "http://forestavenuerestaurant.ie/", "city": "Dublin", "longitude": 0.0}, {"name": "O'Sheas Merchant restaurant", "category": ["Irish"], "address": "12 Lower Bridge Street, City Centre South", "rating": 3, "review_count": 8, "BusinessID": "Dub00366", "latitude": 53.3450431824, "website": "http://www.osheashotel.com", "city": "Dublin", "longitude": -6.27609014511}, {"name": "Crackbird restaurant", "category": ["European", "Irish"], "address": "60 Dame Street, Dublin 2, City Centre South", "rating": 4, "review_count": 96, "BusinessID": "Dub00367", "latitude": 53.3442993164, "website": "http://www.joburger.ie/", "city": "Dublin", "longitude": -6.2668633461}, {"name": "The Lovinspoon restaurant", "category": ["Cafe", "Cheap Eats"], "address": "North Fredrick Street, City Centre North", "rating": 5, "review_count": 9, "BusinessID": "Dub00368", "latitude": 53.3418502808, "website": "", "city": "Dublin", "longitude": -6.25673103333}, {"name": "The Pig's Ear restaurant", "category": ["Brasserie", "Casual Dining", "Irish"], "address": "4 Nassau Street, Dublin, City Centre South", "rating": 4, "review_count": 159, "BusinessID": "Dub00369", "latitude": 53.3421516418, "website": "http://www.thepigsear.com", "city": "Dublin", "longitude": -6.25518989563}, {"name": "Bunsen  restaurant", "category": ["Casual Dining", "Cheap Eats"], "address": "36 Wexford St, Dublin 2, City Centre South", "rating": 4, "review_count": 13, "BusinessID": "Dub00370", "latitude": 53.3372077942, "website": "http://bunsendublin.wordpress.com/23-2/", "city": "Dublin", "longitude": -6.26587486267}, {"name": "Madina Desi Curry Co restaurant", "category": ["Indian", "Pakistani", "Vegetarian"], "address": "60 Mary Street, Dublin 1, City Centre North", "rating": 4, "review_count": 109, "BusinessID": "Dub00371", "latitude": 53.3485603333, "website": "http://www.madina.ie", "city": "Dublin", "longitude": -6.26823997498}, {"name": "The Baggot Inn restaurant", "category": ["Irish", "Pub Grub"], "address": "143 Lower Baggott Street, Baggot Street, St Stephens Green", "rating": 4, "review_count": 48, "BusinessID": "Dub00372", "latitude": 53.3378486633, "website": "www.thebaggotinn.ie", "city": "Dublin", "longitude": -6.25278711319}, {"name": "The Green Room restaurant", "category": ["Pub Grub"], "address": "Liffey Trust Centre, Beside the 02, IFSC", "rating": 3, "review_count": 5, "BusinessID": "Dub00373", "latitude": 53.3468093872, "website": "http://www.thegreenroombar.ie/", "city": "Dublin", "longitude": -6.22752285004}, {"name": "Kennedys Bar restaurant", "category": ["Irish"], "address": "Kennedys Bar 31-32 Westland Row, City Centre South", "rating": 0, "review_count": 0, "BusinessID": "Dub00374", "latitude": 0.0, "website": "", "city": "Dublin", "longitude": 0.0}, {"name": "The Food Gallery restaurant", "category": ["European"], "address": "84 Thomas Street, City Centre South", "rating": 0, "review_count": 0, "BusinessID": "Dub00375", "latitude": 0.0, "website": "", "city": "Dublin", "longitude": 0.0}, {"name": "Cobalt Cafe restaurant", "category": ["Cafe", "Casual Dining", "Vegetarian"], "address": "16 North Great Georges St, City Centre North", "rating": 4, "review_count": 14, "BusinessID": "Dub00376", "latitude": 53.3544692993, "website": "", "city": "Dublin", "longitude": -6.26072120667}, {"name": "Soup Dragon restaurant", "category": ["Casual Dining", "Cheap Eats"], "address": "168 Capel Street, City Centre North", "rating": 4, "review_count": 22, "BusinessID": "Dub00377", "latitude": 53.3461151123, "website": "http://www.soupdragon.com", "city": "Dublin", "longitude": -6.2679476738}, {"name": "Zakura Noodle & Sushi restaurant", "category": ["Japanese", "Kid's Menu", "Sushi"], "address": "13 Wexford St, Dublin 2, Camden Street", "rating": 4, "review_count": 9, "BusinessID": "Dub00378", "latitude": 53.3369216919, "website": "http://www.zakuradublin.com/", "city": "Dublin", "longitude": -6.26542282104}, {"name": "Delhi O'Deli restaurant", "category": ["Indian"], "address": "12 Moore Street, City Centre North", "rating": 4, "review_count": 7, "BusinessID": "Dub00379", "latitude": 0.0, "website": "http://www.delhiodeli.com/index.php", "city": "Dublin", "longitude": 0.0}, {"name": "Pho Viet Vietnamese Restaurant", "category": ["Asian", "Cheap Eats"], "address": "162 Parnell Street, Dublin 1, City Centre North", "rating": 4, "review_count": 29, "BusinessID": "Dub00380", "latitude": 53.3519477844, "website": "", "city": "Dublin", "longitude": -6.2627863884}, {"name": "Wings Gourmet Burger restaurant", "category": ["American", "Casual Dining", "Gourmet Burger"], "address": "Unit C, 46/49, Opposite Gresham Hotel, O'Connell St", "rating": 4, "review_count": 47, "BusinessID": "Dub00381", "latitude": 53.3515892029, "website": "", "city": "Dublin", "longitude": -6.26119327545}, {"name": "Il Fico Sicilian Caf\u00e9 restaurant", "category": ["Cafe", "Halal", "Italian"], "address": "6 Chatham Court, Chatham Street, City Centre South", "rating": 4, "review_count": 21, "BusinessID": "Dub00382", "latitude": 53.3407402039, "website": "", "city": "Dublin", "longitude": -6.26216411591}, {"name": "The Lord Edward restaurant", "category": ["Pub Grub", "Seafood"], "address": "23 Christchurch Place, City Centre South", "rating": 4, "review_count": 34, "BusinessID": "Dub00383", "latitude": 53.3431510925, "website": "http://www.lordedward.ie", "city": "Dublin", "longitude": -6.27033901215}, {"name": "Kitchen restaurant", "category": ["European"], "address": "3 South Anne Street, Dublin 2, City Centre South", "rating": 4, "review_count": 206, "BusinessID": "Dub00384", "latitude": 53.3412704468, "website": "http://www.thekitchen.ie/", "city": "Dublin", "longitude": -6.26000785828}, {"name": "Etto Merrion Row restaurant", "category": ["Italian", "Wine Bar"], "address": "18 Merrion Row, Dublin 2, City Centre South", "rating": 4, "review_count": 12, "BusinessID": "Dub00385", "latitude": 53.3381233215, "website": "http://www.etto.ie/;", "city": "Dublin", "longitude": -6.25393486023}, {"name": "Cones & Co restaurant", "category": ["Cafe"], "address": "23 Dawson Street, Dublin, Dawson Street", "rating": 0, "review_count": 0, "BusinessID": "Dub00386", "latitude": 0.0, "website": "https://www.facebook.com/Conesandco/info", "city": "Dublin", "longitude": 0.0}, {"name": "Olesya's Wine Bar restaurant", "category": ["Bistro", "Brunch", "European", "French", "Wine Bar"], "address": "18 Exchequer Street, Dublin 2, City Centre South", "rating": 4, "review_count": 88, "BusinessID": "Dub00387", "latitude": 53.3430099487, "website": "http://www.olesyaswinebar.com/index.html", "city": "Dublin", "longitude": -6.26379489899}, {"name": "Cafe Phillippe restaurant", "category": ["Cafe"], "address": "65 aungier st, City Centre South", "rating": 0, "review_count": 0, "BusinessID": "Dub00388", "latitude": 53.3400382996, "website": "", "city": "Dublin", "longitude": -6.26577806473}, {"name": "Peacock Green restaurant", "category": ["Casual Dining", "Cheap Eats", "European"], "address": "25 Leeson St. Lower, Dublin 2 , City Centre South", "rating": 4, "review_count": 5, "BusinessID": "Dub00389", "latitude": 53.3341751099, "website": " (01) 642 4444", "city": "Dublin", "longitude": -6.25520420074}, {"name": "La Cocotte restaurant", "category": ["Cafe", "Cheap Eats"], "address": "Ground Floor, Alliance Francaise, 1 Kildare Street, City Centre South", "rating": 5, "review_count": 6, "BusinessID": "Dub00390", "latitude": 53.3416366577, "website": "http://www.alliance-francaise.ie/home.htm", "city": "Dublin", "longitude": -6.25418186188}, {"name": "Phoenix Park Cafe restaurant", "category": ["Cafe", "Cheap Eats"], "address": "Grounds of the Visitor's Centre, Parkgate Street", "rating": 4, "review_count": 8, "BusinessID": "Dub00391", "latitude": 53.3646888733, "website": "http://www.phoenixpark.ie/visitorinformation/cafetearoomsicecreamkiosks/", "city": "Dublin", "longitude": -6.33044242859}, {"name": "Eamon Reas restaurant", "category": ["Cheap Eats", "Pub Grub"], "address": "25 Parkgate Street, City Centre South", "rating": 3, "review_count": 1, "BusinessID": "Dub00392", "latitude": 53.3480682373, "website": "", "city": "Dublin", "longitude": -6.29411458969}, {"name": "Cafe Bliss restaurant", "category": ["BYOB", "Cafe", "Casual Dining"], "address": "4B Montague Street, Dublin 2, City Centre South", "rating": 4, "review_count": 102, "BusinessID": "Dub00393", "latitude": 53.333782196, "website": "", "city": "Dublin", "longitude": -6.26379489899}, {"name": "Pitt Bros Smoked BBQ restaurant", "category": ["American", "Casual Dining", "Vegetarian"], "address": "Unit 1, Wicklow House, Georges St, Dublin 2, City Centre South", "rating": 4, "review_count": 31, "BusinessID": "Dub00394", "latitude": 53.3423461914, "website": "http://www.pittbrosBBQ.com", "city": "Dublin", "longitude": -6.26465320587}, {"name": "The Parnell Heritage Pub and Grill restaurant", "category": ["Casual Dining", "European", "Gastro Pub", "Irish"], "address": "72-74 Parnell Street, O'Connell St", "rating": 4, "review_count": 12, "BusinessID": "Dub00395", "latitude": 0.0, "website": "www.theparnell.com", "city": "Dublin", "longitude": 0.0}, {"name": "Junior's - Paulie's Pizza restaurant", "category": ["Cafe", "Delicatessen", "Pizzeria"], "address": "58 Grand Canal Street, Dublin 4, City Centre South", "rating": 4, "review_count": 38, "BusinessID": "Dub00396", "latitude": 53.3373184204, "website": "http://www.juniors.ie/", "city": "Dublin", "longitude": -6.23484230042}, {"name": "Bite - New Location Opening Soon! restaurant", "category": ["Cocktails", "European", "Fish"], "address": "29 South Frederick Street, Dublin 2, City Centre South", "rating": 4, "review_count": 30, "BusinessID": "Dub00397", "latitude": 53.3418884277, "website": "http://www.bitedublin.com/", "city": "Dublin", "longitude": -6.25669002533}, {"name": "The Celt restaurant", "category": ["Cheap Eats", "Irish", "Pub Grub"], "address": "81-82 Talbot Street, City Centre North", "rating": 4, "review_count": 9, "BusinessID": "Dub00398", "latitude": 53.3505592346, "website": "http://www.thecelt.ie/default.aspx", "city": "Dublin", "longitude": -6.25468587875}, {"name": "King Charlies Malaysian Chinese Restaurant", "category": ["Asian", "Asian Fusion", "Brunch", "Casual Dining", "Fish", "Girls Night Out", "Healthy Eating", "Malaysian", "Seafood", "Sunday Lunch", "Thai"], "address": "15 Dame Street, Dublin 2, City Centre South", "rating": 4, "review_count": 19, "BusinessID": "Dub00399", "latitude": 53.3440628052, "website": "", "city": "Dublin", "longitude": -6.26526355743}, {"name": "Casanostra restaurant", "category": ["Cafe", "Italian"], "address": "85 Marlborough Street, City Centre North", "rating": 4, "review_count": 1, "BusinessID": "Dub00400", "latitude": 53.3512573242, "website": "", "city": "Dublin", "longitude": -6.25863456726}, {"name": "37 Dawson Street restaurant", "category": ["Coeliac options", "European", "Gastro Pub", "Irish", "Vegetarian"], "address": "37 Dawson Street, Dawson Street", "rating": 4, "review_count": 15, "BusinessID": "Dub00401", "latitude": 53.3405036926, "website": "http://www.37dawsonstreet.ie/", "city": "Dublin", "longitude": -6.25867652893}, {"name": "Sheehans restaurant", "category": ["Cheap Eats", "Pub Grub"], "address": "17 Chatham Street, City Centre South", "rating": 4, "review_count": 8, "BusinessID": "Dub00402", "latitude": 53.3408432007, "website": "http://www.sheehans.ie", "city": "Dublin", "longitude": -6.26167058945}, {"name": "Pearse Brasserie at The Pearse Hotel restaurant", "category": ["European"], "address": "98-107 Pearse Street, Dublin 2, City Centre South", "rating": 3, "review_count": 5, "BusinessID": "Dub00403", "latitude": 53.3441467285, "website": "http://www.pearsehotel.com/", "city": "Dublin", "longitude": -6.24933242798}, {"name": "KC Peaches Cafe & Delicatessen (Nassau Street) restaurant", "category": ["Cafe", "Delicatessen"], "address": "28/29 Nassau Street, Dublin 2 , City Centre South", "rating": 4, "review_count": 57, "BusinessID": "Dub00404", "latitude": 53.3427772522, "website": "http://kcpeaches.com/", "city": "Dublin", "longitude": -6.25719976425}, {"name": "Cafe Fresh restaurant", "category": ["Cheap Eats", "Healthy Eating", "Vegetarian"], "address": "Top Floor Powerscourt Townhouse Centre, City Centre South", "rating": 4, "review_count": 48, "BusinessID": "Dub00405", "latitude": 53.3423156738, "website": "http://www.cafe-fresh.com", "city": "Dublin", "longitude": -6.26209974289}, {"name": "The Chop House Gastro Pub restaurant", "category": ["Bistro", "Casual Dining", "French", "Gastro Pub", "Irish", "Steak and Seafood", "Vegetarian"], "address": "2 Shelbourne Road, City Centre South", "rating": 4, "review_count": 62, "BusinessID": "Dub00406", "latitude": 53.3334312439, "website": "http://www.thechophouse.ie/", "city": "Dublin", "longitude": -6.2317481041}, {"name": "The Barge restaurant", "category": ["Cheap Eats", "Pub Grub"], "address": "Charlemont Street, Dublin 2, City Centre South", "rating": 3, "review_count": 16, "BusinessID": "Dub00407", "latitude": 53.3305778503, "website": "", "city": "Dublin", "longitude": -6.26066207886}, {"name": "Sadlers restaurant", "category": ["Cheap Eats", "Irish", "Pub Grub"], "address": "Parkgate Street, City Centre South", "rating": 0, "review_count": 0, "BusinessID": "Dub00408", "latitude": 53.3481674194, "website": "", "city": "Dublin", "longitude": -6.2938785553}, {"name": "Becky Morgans restaurant", "category": ["Pub Grub"], "address": "Grand Canal Street Lower, City Centre South", "rating": 4, "review_count": 3, "BusinessID": "Dub00409", "latitude": 53.3396911621, "website": "", "city": "Dublin", "longitude": -6.24143600464}, {"name": "The Library at Dandelion restaurant", "category": ["Bistro"], "address": "St Stephen's Green, Dublin 2, City Centre South", "rating": 4, "review_count": 8, "BusinessID": "Dub00410", "latitude": 0.0, "website": "http://www.welovedandelion.com/", "city": "Dublin", "longitude": 0.0}, {"name": "Tiesan Cafe restaurant", "category": ["Cafe"], "address": "Harrington Street, City Centre South", "rating": 4, "review_count": 8, "BusinessID": "Dub00411", "latitude": 53.3325424194, "website": "http://www.tiesan.com/index.php", "city": "Dublin", "longitude": -6.26697158813}, {"name": "Homemade by Clodagh @ Arnotts restaurant", "category": ["Casual Dining"], "address": "12 Henry Street, City Centre North", "rating": 2, "review_count": 25, "BusinessID": "Dub00412", "latitude": 53.3493881226, "website": "http://www.arnotts.ie/", "city": "Dublin", "longitude": -6.26260471344}, {"name": "Innfusion Restaurant (Parnell Street)", "category": ["International"], "address": "Jurys Inn, Parnell Street, Dublin 1, City Centre North", "rating": 0, "review_count": 0, "BusinessID": "Dub00413", "latitude": 53.3504486084, "website": "http://dublinhotels.jurysinns.com/jurysinn_parnellstreet", "city": "Dublin", "longitude": -6.26574802399}, {"name": "Honestea Cafe and Deli restaurant", "category": ["Cafe"], "address": "Unit 2, St Lukes Avenue, Cork Street, City Centre South", "rating": 0, "review_count": 0, "BusinessID": "Dub00414", "latitude": 51.9038581848, "website": "", "city": "Dublin", "longitude": -8.45850944519}, {"name": "Gotham Cafe restaurant", "category": ["American", "Breakfast", "Brunch", "Cafe", "Casual Dining", "Cheap Eats", "European", "Girls Night Out", "Healthy Eating", "International", "Italian", "Kid's Menu", "Pizzeria", "Sunday Lunch", "Vegetarian"], "address": "8 South Anne Street, Dublin 2, City Centre South", "rating": 4, "review_count": 316, "BusinessID": "Dub00415", "latitude": 53.3412094116, "website": "http://gothamcafe.ie/", "city": "Dublin", "longitude": -6.25977182388}, {"name": "Milano (Clarion Quay) restaurant", "category": ["Cheap Eats", "Healthy Eating", "Italian", "Kid's Menu", "Pizzeria"], "address": "Unit 6, Excise Walk, Clarion Quay, Dublin 1, City Centre, IFSC", "rating": 3, "review_count": 140, "BusinessID": "Dub00416", "latitude": 53.3474006653, "website": "http://www.milano.ie", "city": "Dublin", "longitude": -6.23611497879}, {"name": "Panem restaurant", "category": ["Cheap Eats", "French", "Italian"], "address": "Ha'penny Bridge House, 21 Lower Ormond Quay, City Centre North", "rating": 4, "review_count": 8, "BusinessID": "Dub00417", "latitude": 53.3460006714, "website": "", "city": "Dublin", "longitude": -6.2693400383}, {"name": "Brambles Cafe restaurant", "category": ["Cafe"], "address": "National Library Of Ireland, Kildare Street, City Centre South", "rating": 4, "review_count": 2, "BusinessID": "Dub00418", "latitude": 0.0, "website": "http://www.brambles.ie", "city": "Dublin", "longitude": 0.0}, {"name": "EAST Restaurant", "category": ["Asian", "Asian Fusion", "International", "Japanese"], "address": "The Spencer Hotel, Excise Walk, Dublin 1, City Centre, IFSC", "rating": 4, "review_count": 2, "BusinessID": "Dub00419", "latitude": 53.3491668701, "website": "http://www.thespencerhotel.com/east-restaurant.html/", "city": "Dublin", "longitude": -6.24337053299}, {"name": "Hanley at the Bar restaurant", "category": ["Bistro"], "address": "The Distillery Building, May Lane, Church Street, Dublin 7, City Centre North", "rating": 0, "review_count": 0, "BusinessID": "Dub00420", "latitude": 53.3471984863, "website": "http://www.clairehanley.ie/at_the_bar/", "city": "Dublin", "longitude": -6.25920009613}, {"name": "Nancy Hands Bar & Restaurant (Near Dublin Zoo)", "category": ["Gastro Pub", "Pub Grub", "Sunday Lunch", "Traditional Irish"], "address": "30-32 Parkgate Street, Parkgate Street", "rating": 4, "review_count": 49, "BusinessID": "Dub00421", "latitude": 53.3479881287, "website": "http://www.nancyhands.ie/", "city": "Dublin", "longitude": -6.29095983505}, {"name": "Queen of Tarts restaurant", "category": ["Cafe", "Casual Dining", "Cheap Eats"], "address": "4 Cork Hill Dame Street, City Centre South", "rating": 4, "review_count": 55, "BusinessID": "Dub00422", "latitude": 53.3471984863, "website": "http://www.queenoftarts.ie/", "city": "Dublin", "longitude": -6.25920009613}, {"name": "Chief Chang's Buffet restaurant", "category": ["Asian", "Asian Fusion", "Casual Dining", "Cheap Eats"], "address": "St. Stephens Green Shopping Centre, Dublin 2, City Centre South", "rating": 3, "review_count": 2, "BusinessID": "Dub00423", "latitude": 0.0, "website": "", "city": "Dublin", "longitude": 0.0}, {"name": "The Restaurant at Brown Thomas", "category": ["Casual Dining", "European", "Irish", "Vegetarian"], "address": "88-95 Grafton St, City Centre South", "rating": 4, "review_count": 2, "BusinessID": "Dub00424", "latitude": 53.3423919678, "website": "www.brownthomas.com", "city": "Dublin", "longitude": -6.25991487503}, {"name": "The Blarney Inn restaurant", "category": ["Irish"], "address": "Kildare St, Dublin 2, City Centre South", "rating": 0, "review_count": 0, "BusinessID": "Dub00425", "latitude": 53.3390655518, "website": "http://www.kildarestreethoteldublin.com/Blarney-Inn/", "city": "Dublin", "longitude": -6.25654888153}, {"name": "Admiral Restaurant", "category": ["International"], "address": "Q Park, Marlborough Street, City Centre North", "rating": 4, "review_count": 23, "BusinessID": "Dub00426", "latitude": 53.3523292542, "website": "http://admiralrestaurant.com/", "city": "Dublin", "longitude": -6.25901508331}, {"name": "Pizza Hut restaurant", "category": ["Casual Dining", "Cheap Eats", "Pizzeria"], "address": "24 Suffolk Street, Dublin 2, City Centre South", "rating": 3, "review_count": 47, "BusinessID": "Dub00427", "latitude": 0.0, "website": "http://www.pizzahutireland.com/", "city": "Dublin", "longitude": 0.0}, {"name": "Fixx Coffee House restaurant", "category": ["Cafe"], "address": "13-17 Dawson Street, City Centre South", "rating": 1, "review_count": 1, "BusinessID": "Dub00428", "latitude": 53.3413085938, "website": "http://www.fixxcoffeehouse.ie/", "city": "Dublin", "longitude": -6.25823020935}, {"name": "Hatch & Sons Irish Kitchen restaurant", "category": ["Irish"], "address": "The Little Museum of Dublin, 15 St Stephens Green, Dublin 2, City Centre South", "rating": 4, "review_count": 5, "BusinessID": "Dub00429", "latitude": 0.0, "website": "http://www.hatchandsons.co/", "city": "Dublin", "longitude": 0.0}, {"name": "Shanahan\u2019s on the Green restaurant", "category": ["Cocktails", "European", "Fine Dining", "Fish", "Irish", "Steak", "Steak and Seafood"], "address": "119 St. Stephens Green, Dublin , City Centre South", "rating": 4, "review_count": 239, "BusinessID": "Dub00430", "latitude": 53.3386116028, "website": "http://www.shanahans.ie", "city": "Dublin", "longitude": -6.26197099686}, {"name": "The Pig and Heifer (City Quay) restaurant", "category": ["Cafe", "Casual Dining", "Kid's Menu"], "address": "21-23 City Quay, Dublin 2, City Centre South", "rating": 4, "review_count": 3, "BusinessID": "Dub00431", "latitude": 53.3469543457, "website": "http://pigandheifer.ie/", "city": "Dublin", "longitude": -6.24924755096}, {"name": "The Pig and Heifer (Guild Court) restaurant", "category": ["Cafe", "Casual Dining", "European"], "address": "6 Guild Court, Amiens st, City Centre South", "rating": 0, "review_count": 0, "BusinessID": "Dub00432", "latitude": 53.3517990112, "website": "www.pigandheifer.ie", "city": "Dublin", "longitude": -6.2498292923}, {"name": "Against the Grain restaurant", "category": ["Casual Dining", "Gastro Pub"], "address": "11 Wexford St, City Centre South", "rating": 4, "review_count": 10, "BusinessID": "Dub00433", "latitude": 53.3371276855, "website": "", "city": "Dublin", "longitude": -6.26549005508}, {"name": "China Castle restaurant", "category": ["Chinese"], "address": "58/59 Middle Abbey Street, City Centre North", "rating": 4, "review_count": 34, "BusinessID": "Dub00434", "latitude": 53.3481292725, "website": "", "city": "Dublin", "longitude": -6.26181602478}, {"name": "Brookwood Restaurant", "category": ["Steak and Seafood"], "address": "141 Baggot Street Lower, Dublin 2, City Centre South", "rating": 4, "review_count": 4, "BusinessID": "Dub00435", "latitude": 53.3377990723, "website": "", "city": "Dublin", "longitude": -6.25273799896}, {"name": "Mannings Bakery restaurant", "category": ["Bakery", "Cafe"], "address": "40 Thomas Street, Dublin 2, City Centre South", "rating": 4, "review_count": 8, "BusinessID": "Dub00436", "latitude": 53.3428382874, "website": "http://www.manningsbakeryshops.ie", "city": "Dublin", "longitude": -6.27715206146}, {"name": "The Terrace restaurant", "category": ["Cheap Eats", "European"], "address": "The Merrion Hotel, Upper Merrion Street, Dublin 2, City Centre South", "rating": 3, "review_count": 1, "BusinessID": "Dub00437", "latitude": 53.3387031555, "website": "http://www.merrionhotel.com/terrace.asp", "city": "Dublin", "longitude": -6.25289440155}, {"name": "River Bar restaurant", "category": ["Cocktails", "European", "Gastro Pub", "Pub Grub"], "address": "1 Burgh Quay, O'Connell Bridge House, City Centre North", "rating": 0, "review_count": 0, "BusinessID": "Dub00438", "latitude": 0.0, "website": "http://www.riverbar.ie", "city": "Dublin", "longitude": 0.0}, {"name": "J2 Grill & Sushi restaurant", "category": ["Asian Fusion", "Japanese", "Sushi"], "address": "Unit A, The Campshires, North Wall Quay, Dublin 1, City Centre, IFSC", "rating": 5, "review_count": 7, "BusinessID": "Dub00439", "latitude": 53.3478927612, "website": "http://www.j2sushi.com", "city": "Dublin", "longitude": -6.24786186218}, {"name": "Matt The Thresher Seafood Bar and Grill restaurant", "category": ["Casual Dining", "Cocktails", "Fish & Chips", "Gastro Pub", "Girls Night Out", "Healthy Eating", "Irish", "Seafood", "Traditional Irish", "Vegetarian"], "address": "31/31 Lower Pembroke Street, Dublin 2, City Centre South", "rating": 4, "review_count": 71, "BusinessID": "Dub00440", "latitude": 53.3367996216, "website": "http://mattthethresher.ie/", "city": "Dublin", "longitude": -6.25210952759}, {"name": "Dax Restaurant", "category": ["Coeliac options", "Fine Dining", "French", "Girls Night Out", "Vegetarian"], "address": "23 Upper Pembroke Street, Dublin 2, City Centre South", "rating": 4, "review_count": 123, "BusinessID": "Dub00441", "latitude": 53.3369903564, "website": "http://www.dax.ie", "city": "Dublin", "longitude": -6.25203609467}, {"name": "Lunch! Calzone Cafe restaurant", "category": ["Casual Dining", "Cheap Eats"], "address": "63 South William Street, South William Street", "rating": 4, "review_count": 52, "BusinessID": "Dub00442", "latitude": 53.3428726196, "website": "", "city": "Dublin", "longitude": -6.26204586029}, {"name": "Jo'Burger - Town restaurant", "category": ["Casual Dining"], "address": "Jo'Burger Town, 4/5 Castle Market, Dublin 2, City Centre South", "rating": 4, "review_count": 8, "BusinessID": "Dub00443", "latitude": 0.0, "website": "http://www.joburger.ie", "city": "Dublin", "longitude": 0.0}, {"name": "Sabor Brazil restaurant", "category": ["Brazilian", "Healthy Eating", "Vegetarian"], "address": "50 Pleasant Street, Off Camden Street, Dublin 2, City Centre South", "rating": 5, "review_count": 105, "BusinessID": "Dub00444", "latitude": 53.3353614807, "website": "http://www.saborbrazil.ie/", "city": "Dublin", "longitude": -6.26669216156}, {"name": "McGrattans Cafe Bar restaurant", "category": ["Pub Grub"], "address": "Baggot Street, Dublin 2, City Centre South", "rating": 4, "review_count": 4, "BusinessID": "Dub00445", "latitude": 0.0, "website": "http://www.mcgrattans.ie/default.html", "city": "Dublin", "longitude": 0.0}, {"name": "The National Gallery Cafe & Restaurant", "category": ["Cafe", "Cheap Eats"], "address": "Merrion Square West & Clare Street, City Centre South", "rating": 4, "review_count": 7, "BusinessID": "Dub00446", "latitude": 53.3410491943, "website": "http://www.nationalgallery.ie", "city": "Dublin", "longitude": -6.25099611282}, {"name": "Chopped restaurant", "category": ["Healthy Eating"], "address": "148 Lower Baggot Street, City Centre South", "rating": 4, "review_count": 1, "BusinessID": "Dub00447", "latitude": 0.0, "website": "http://www.chopped.ie/section/AboutChopped", "city": "Dublin", "longitude": 0.0}, {"name": "Delahunt restaurant", "category": ["Casual Dining", "Irish", "Traditional Irish"], "address": "39 Camden Street Lower, Camden Street", "rating": 5, "review_count": 1, "BusinessID": "Dub00448", "latitude": 0.0, "website": "", "city": "Dublin", "longitude": 0.0}, {"name": "P\u00f3g Fro-yo restaurant", "category": ["Healthy Eating"], "address": "32 Bachelors Walk, Dublin 1, City Centre North", "rating": 5, "review_count": 1, "BusinessID": "Dub00449", "latitude": 53.3475799561, "website": "https://www.facebook.com/PogFroYo", "city": "Dublin", "longitude": -6.26002407074}, {"name": "The Still Room restaurant", "category": ["Cafe", "Cheap Eats"], "address": "Old Jameson Distillery\r\nBow Street, City Centre South", "rating": 3, "review_count": 2, "BusinessID": "Dub00450", "latitude": 53.3430709839, "website": "http://www.irishdistillershost.com", "city": "Dublin", "longitude": -6.29420042038}, {"name": "Madigans Bar & Restaurant", "category": ["Casual Dining", "Cheap Eats", "Pub Grub", "Sunday Lunch"], "address": "16 Lower O'Connell Street, O'Connell St", "rating": 3, "review_count": 8, "BusinessID": "Dub00451", "latitude": 53.3485717773, "website": "http://www.madigansdublin.com/;  ", "city": "Dublin", "longitude": -6.25947093964}, {"name": "Rafa's Temaki restaurant", "category": ["Japanese"], "address": "Epicurean Food Hall, 1 Lower Liffey Street, City Centre North", "rating": 0, "review_count": 0, "BusinessID": "Dub00452", "latitude": 0.0, "website": "http://www.rafastemaki.ie/", "city": "Dublin", "longitude": 0.0}, {"name": "The Gingerman restaurant", "category": ["Cheap Eats", "Gastro Pub", "Pub Grub"], "address": "40 Fenian Street, City Centre South", "rating": 3, "review_count": 9, "BusinessID": "Dub00453", "latitude": 53.3415222168, "website": "", "city": "Dublin", "longitude": -6.24864578247}, {"name": "Lemon (Dawson St) restaurant", "category": ["Cafe", "Cheap Eats"], "address": "60 Dawson St, Dublin 2, City Centre South", "rating": 4, "review_count": 83, "BusinessID": "Dub00454", "latitude": 53.3421478271, "website": "", "city": "Dublin", "longitude": -6.25815153122}, {"name": "Voila restaurant", "category": ["Breakfast", "Brunch", "Cafe", "Casual Dining", "Coeliac options", "European", "French"], "address": "14 Lower Baggot Street, Dublin 2, City Centre South", "rating": 0, "review_count": 0, "BusinessID": "Dub00455", "latitude": 0.0, "website": "", "city": "Dublin", "longitude": 0.0}, {"name": "Elephant & Castle restaurant", "category": ["American", "Coeliac options", "European", "Kid's Menu"], "address": "18/19 Temple Bar, Dublin 2, City Centre South", "rating": 4, "review_count": 417, "BusinessID": "Dub00456", "latitude": 53.3456192017, "website": "http://www.elephantandcastle.ie", "city": "Dublin", "longitude": -6.26377296448}, {"name": "Milano (Dawson Street) restaurant", "category": ["Cheap Eats", "Healthy Eating", "Italian", "Kid's Menu", "Pizzeria"], "address": "38 Dawson Street, Dublin 2 , City Centre South", "rating": 4, "review_count": 252, "BusinessID": "Dub00457", "latitude": 53.3408508301, "website": "http://www.milano.ie", "city": "Dublin", "longitude": -6.25855922699}, {"name": "Kebabish restaurant", "category": ["Fast Food"], "address": "39 Lower Clanbrassil St, City Centre South", "rating": 0, "review_count": 0, "BusinessID": "Dub00458", "latitude": 53.3335876465, "website": "http://www.kebabish.ie/", "city": "Dublin", "longitude": -6.27487945557}, {"name": "The Pepper Pot Cafe restaurant", "category": ["Cafe", "Casual Dining", "Cheap Eats", "Organic"], "address": "Powerscourt Town House, 1st Floor, Dublin 2, City Centre South", "rating": 4, "review_count": 14, "BusinessID": "Dub00459", "latitude": 53.3421897888, "website": "http://www.thepepperpot.ie/", "city": "Dublin", "longitude": -6.26053190231}, {"name": "Jade Chinese Restaurant", "category": ["Chinese"], "address": "27 Little Mary Street Off Capel street, Dublin 7 , City Centre North", "rating": 4, "review_count": 44, "BusinessID": "Dub00460", "latitude": 53.3483734131, "website": "", "city": "Dublin", "longitude": -6.26945972443}, {"name": "Eddie Rockets (Dame Street) restaurant", "category": ["American", "Cheap Eats"], "address": "Dame Street, Dublin 2, City Centre South", "rating": 4, "review_count": 40, "BusinessID": "Dub00461", "latitude": 53.3442764282, "website": "http://www.eddierockets.ie", "city": "Dublin", "longitude": -6.26660585403}, {"name": "Thornton's Restaurant", "category": ["European", "Fine Dining", "Irish"], "address": "128 St Stephens Green, Dublin, City Centre South", "rating": 4, "review_count": 86, "BusinessID": "Dub00462", "latitude": 53.3393707275, "website": "http://www.thorntonsrestaurant.com", "city": "Dublin", "longitude": -6.25817298889}, {"name": "Hugo's restaurant", "category": ["French", "Irish", "Vegetarian", "Wine Bar"], "address": "6 Merrion Row, Dublin 2, City Centre South", "rating": 4, "review_count": 296, "BusinessID": "Dub00463", "latitude": 53.338508606, "website": "http://www.hugos.ie", "city": "Dublin", "longitude": -6.25486898422}, {"name": "Radisson Blu Royal Hotel restaurant", "category": ["International"], "address": "Golden Lane, Dublin 8, City Centre South", "rating": 1, "review_count": 1, "BusinessID": "Dub00464", "latitude": 0.0, "website": "http://www.radissonblu.ie/royalhotel-dublin", "city": "Dublin", "longitude": 0.0}, {"name": "Cafe Le Monde restaurant", "category": ["Cafe", "Cheap Eats"], "address": "Store Street, City Centre North", "rating": 3, "review_count": 2, "BusinessID": "Dub00465", "latitude": 53.3500137329, "website": "http://www.hotelisaacs.com", "city": "Dublin", "longitude": -6.25152111053}, {"name": "The Old Music Shop Restaurant", "category": ["Brunch", "Casual Dining", "Irish"], "address": "3 North Frederick Street, Dublin 1, City Centre North", "rating": 4, "review_count": 2, "BusinessID": "Dub00466", "latitude": 53.3553733826, "website": "http://oldmusicshopdublin.com/", "city": "Dublin", "longitude": -6.26446771622}, {"name": "Nyonya Malaysian Restaurant", "category": ["Asian", "Asian Fusion", "Cocktails", "English", "Girls Night Out", "Halal", "Japanese", "Korean", "Malaysian", "Pan Asian", "Thai", "Vegetarian", "Vietnamese"], "address": "76 Dame Street, Dublin 2, City Centre South", "rating": 3, "review_count": 65, "BusinessID": "Dub00467", "latitude": 53.3441734314, "website": "", "city": "Dublin", "longitude": -6.26655769348}, {"name": "Dunne And Crescenzi (South Frederick Street) restaurant", "category": ["Cafe", "Casual Dining", "Coeliac options", "Italian", "Seafood", "Vegetarian", "Wine Bar"], "address": "14-16 South Frederick Street, Dublin 2, City Centre South", "rating": 4, "review_count": 221, "BusinessID": "Dub00468", "latitude": 53.342212677, "website": "http://www.dunneandcrescenzi.com/", "city": "Dublin", "longitude": -6.25660419464}, {"name": "Dandelion restaurant", "category": ["European"], "address": "St. Stephen's Green, St Stephens Green", "rating": 4, "review_count": 127, "BusinessID": "Dub00469", "latitude": 53.3388671875, "website": "http://www.welovedandelion.com", "city": "Dublin", "longitude": -6.26167058945}, {"name": "Eddie Rockets (South Annes Street) restaurant", "category": ["American", "Cheap Eats"], "address": "7 South Annes Street, Dublin 2, City Centre South", "rating": 3, "review_count": 37, "BusinessID": "Dub00470", "latitude": 53.3412399292, "website": "http://www.eddierockets.ie", "city": "Dublin", "longitude": -6.25993251801}, {"name": "Chapter One Restaurant", "category": ["European", "Fine Dining", "French"], "address": "18/19 Parnell Square, Dublin 1, City Centre North", "rating": 5, "review_count": 295, "BusinessID": "Dub00471", "latitude": 53.3534202576, "website": "http://www.chapteronerestaurant.com", "city": "Dublin", "longitude": -6.26242208481}, {"name": "The Clarendon Bar restaurant", "category": ["Cocktails", "European", "Pub Grub"], "address": "32 Clarendon Street, City Centre South", "rating": 3, "review_count": 11, "BusinessID": "Dub00472", "latitude": 53.3410186768, "website": "http://theclarendonbar.com/", "city": "Dublin", "longitude": -6.26238059998}, {"name": "Doppio Zero Restaurant & Wine Bar", "category": ["Cafe", "Italian", "Pizzeria", "Wine Bar"], "address": "4 Abbey St, City Centre North", "rating": 5, "review_count": 1, "BusinessID": "Dub00473", "latitude": 0.0, "website": "http://www.spottedbylocals.com/dublin/doppio-zero/", "city": "Dublin", "longitude": 0.0}, {"name": "Eddie Rockets (O Connell Street) restaurant", "category": ["American", "Cheap Eats"], "address": "O' Connell Street, City Centre North", "rating": 3, "review_count": 48, "BusinessID": "Dub00474", "latitude": 53.3477897644, "website": "http://www.eddierockets.ie", "city": "Dublin", "longitude": -6.25962114334}, {"name": "The Vintage Kitchen restaurant", "category": ["Irish"], "address": "7 Poolbeg St, Dublin 2, City Centre South", "rating": 5, "review_count": 27, "BusinessID": "Dub00475", "latitude": 0.0, "website": "http://www.thevintagekitchen.ie/home/", "city": "Dublin", "longitude": 0.0}, {"name": "Flanagan\u2019s Restaurant", "category": ["Breakfast", "Casual Dining", "Irish", "Steak", "Sunday Lunch", "Traditional Irish"], "address": "61 Upper O'Connell Street, O'Connell St", "rating": 3, "review_count": 68, "BusinessID": "Dub00476", "latitude": 53.351524353, "website": "http://www.flanagansrestaurantdublin.com", "city": "Dublin", "longitude": -6.26072645187}, {"name": "The Fumbally restaurant", "category": ["Breakfast", "Cafe", "Casual Dining", "Cheap Eats", "Mediterranean", "Traditional Irish"], "address": "Fumbally Lane, Dublin 8, City Centre South", "rating": 4, "review_count": 2, "BusinessID": "Dub00477", "latitude": 53.336971283, "website": "http://thefumbally.ie/", "city": "Dublin", "longitude": -6.27371788025}, {"name": "Fire Restaurant and Lounge", "category": ["Fine Dining", "Irish", "Steak and Seafood"], "address": "Mansion House, Dawson Street, Dublin 2, Dawson Street", "rating": 4, "review_count": 523, "BusinessID": "Dub00478", "latitude": 53.3411712646, "website": "http://www.mansionhouse.ie", "city": "Dublin", "longitude": -6.25851583481}, {"name": "Montys of Kathmandu restaurant", "category": ["Coeliac options", "Indian", "Nepalese"], "address": "28 Eustace Street, Dublin 2, City Centre South", "rating": 4, "review_count": 191, "BusinessID": "Dub00479", "latitude": 53.3449707031, "website": "http://www.montys.ie", "city": "Dublin", "longitude": -6.26481389999}, {"name": "Trinity Bar and Venue restaurant", "category": ["Irish"], "address": "46- 49 Dame St, Dublin 2, Dame Street", "rating": 0, "review_count": 0, "BusinessID": "Dub00480", "latitude": 53.344329834, "website": "www.dublincitihotel.com", "city": "Dublin", "longitude": -6.26361322403}, {"name": "Mamma Mia Deli Cafe Bar restaurant", "category": ["Breakfast", "Cafe", "Delicatessen", "Italian"], "address": "2 Grattan Street, Dublin 2, City Centre South", "rating": 5, "review_count": 15, "BusinessID": "Dub00481", "latitude": 53.3394393921, "website": "http://www.mammamiad2.ie/", "city": "Dublin", "longitude": -6.2438120842}, {"name": "LIBERT\u00c9  restaurant", "category": ["French"], "address": "Old Harcourt Station Building, Hatch Street Upper, Dublin 2 , City Centre South", "rating": 4, "review_count": 2, "BusinessID": "Dub00482", "latitude": 53.3339576721, "website": "http://www.liberte.ie", "city": "Dublin", "longitude": -6.26041507721}, {"name": "10 Thousand World Buffet (O'Connell Street) restaurant", "category": ["Asian", "Casual Dining", "Cheap Eats", "Chinese", "Japanese"], "address": "46 - 49 O'Connell Street Upper, O'Connell St", "rating": 4, "review_count": 18, "BusinessID": "Dub00483", "latitude": 0.0, "website": "http://tenthousandworldbuffet.com/", "city": "Dublin", "longitude": 0.0}, {"name": "The Exchequer restaurant", "category": ["Bistro", "Gastro Pub", "Steak"], "address": "3-5 Exchequer Street, City Centre South", "rating": 4, "review_count": 108, "BusinessID": "Dub00484", "latitude": 53.3449897766, "website": "http://www.theexchequer.ie/", "city": "Dublin", "longitude": -6.26967716217}, {"name": "Pizza Stop restaurant", "category": ["Cheap Eats", "Italian", "Pizzeria"], "address": "6/10 Chatham House, Chatham Lane, Off Grafton Street, City Centre South", "rating": 3, "review_count": 90, "BusinessID": "Dub00485", "latitude": 53.3408622742, "website": "", "city": "Dublin", "longitude": -6.26130580902}, {"name": "McThurkel's restaurant", "category": ["Pub Grub"], "address": "15 Townsend Street, City Centre South", "rating": 4, "review_count": 5, "BusinessID": "Dub00486", "latitude": 53.3457603455, "website": "", "city": "Dublin", "longitude": -6.2510061264}, {"name": "The Bachelor Inn restaurant", "category": ["Pub Grub", "Traditional Irish"], "address": "31 Bachelors Walk, City Centre North", "rating": 4, "review_count": 3, "BusinessID": "Dub00487", "latitude": 53.3474884033, "website": "http://www.thebachelorinn.com/", "city": "Dublin", "longitude": -6.25988769531}, {"name": "L'Gueuleton restaurant", "category": ["French"], "address": "No 1 Fade Street, Off Georges's Street, Dublin 2, City Centre South", "rating": 4, "review_count": 354, "BusinessID": "Dub00488", "latitude": 53.342010498, "website": "http://www.lgueuleton.com/pages/info.html", "city": "Dublin", "longitude": -6.26416015625}, {"name": "Ryan's & F.X. Buckley Steakhouse Parkgate Street restaurant", "category": ["Gastro Pub", "Steak and Seafood"], "address": "28 Parkgate Street, Dublin 8, City Centre South", "rating": 4, "review_count": 58, "BusinessID": "Dub00489", "latitude": 53.3479118347, "website": "http://www.fxbuckley.ie", "city": "Dublin", "longitude": -6.29370689392}, {"name": "Caravaggios Restaurant", "category": ["European"], "address": "The Alexander Hotel, Merrion Square, Dublin 2, City Centre South", "rating": 0, "review_count": 0, "BusinessID": "Dub00490", "latitude": 53.3408432007, "website": "http://www.ocallaghanhotel.com", "city": "Dublin", "longitude": -6.24963283539}, {"name": "Lemon Jelly Cafe restaurant", "category": ["Casual Dining", "Cheap Eats", "Crepes"], "address": "Millennium Walkway, Jervis Street, Italian Quarter", "rating": 4, "review_count": 83, "BusinessID": "Dub00491", "latitude": 53.3471450806, "website": "http://lemonjellycafe.ie/", "city": "Dublin", "longitude": -6.265417099}, {"name": "Bia Cafe restaurant", "category": ["Breakfast", "Brunch"], "address": "32 O'Connell Street Lower, City Centre North", "rating": 3, "review_count": 1, "BusinessID": "Dub00492", "latitude": 0.0, "website": "", "city": "Dublin", "longitude": 0.0}, {"name": "Cafe Java - Leeson Street restaurant", "category": ["Cafe", "Cheap Eats", "International"], "address": "145, Upper Leeson Street, City Centre South", "rating": 4, "review_count": 6, "BusinessID": "Dub00493", "latitude": 53.3294868469, "website": "http://www.cafejava.ie/cafe-java-locations-leeson-st.html", "city": "Dublin", "longitude": -6.24964475632}, {"name": "Gourmet Burger Kitchen (GBK South Anne Street) restaurant", "category": ["American", "Cheap Eats", "Gourmet Burger", "International", "Kid's Menu"], "address": "5 South Anne Street, Dublin 2, City Centre South", "rating": 4, "review_count": 124, "BusinessID": "Dub00494", "latitude": 53.3411903381, "website": "http://www.gbkinfo.com", "city": "Dublin", "longitude": -6.25994300842}, {"name": "Oslo restaurant", "category": ["Cheap Eats", "European"], "address": "Connolly Station, I.F.S.C., City Centre North", "rating": 4, "review_count": 4, "BusinessID": "Dub00495", "latitude": 53.3498077393, "website": "http://www.iarnrodeireann.ie/our_services/oslo.asp", "city": "Dublin", "longitude": -6.25094175339}, {"name": "Stil Bar restaurant", "category": ["Bistro", "Brasserie", "Breakfast", "Brunch", "Cafe", "Casual Dining", "Cocktails", "Coeliac options", "European", "Girls Night Out", "Healthy Eating", "Irish", "Kid's Menu", "Mediterranean", "Seafood", "Steak", "Steak and Seafood", "Sunday Lunch", "Vegetarian"], "address": "Hilton Hotel, Charlemont Place, Dublin 2, City Centre South", "rating": 4, "review_count": 2, "BusinessID": "Dub00496", "latitude": 53.3311691284, "website": "http://www.hilton.com", "city": "Dublin", "longitude": -6.25896978378}, {"name": "The Humble Bean restaurant", "category": ["Cafe"], "address": "68 Aungier Street, City Centre South", "rating": 4, "review_count": 13, "BusinessID": "Dub00497", "latitude": 53.3395805359, "website": "http://thehumblebean.ie/", "city": "Dublin", "longitude": -6.26587677002}, {"name": "Mish Mash restaurant", "category": ["Cafe", "European"], "address": "66 Capel St, Dublin 1, City Centre North", "rating": 0, "review_count": 0, "BusinessID": "Dub00498", "latitude": 0.0, "website": "https://www.facebook.com/mishmashdublin/info", "city": "Dublin", "longitude": 0.0}, {"name": "Chez Max (Palace Street) restaurant", "category": ["Coeliac options", "French", "Girls Night Out"], "address": "1 Palace Street, Dublin 2, City Centre South", "rating": 4, "review_count": 267, "BusinessID": "Dub00499", "latitude": 53.3438796997, "website": "http://www.chezmax.ie", "city": "Dublin", "longitude": -6.26587581635}, {"name": "Harrys on the Green restaurant", "category": ["American", "Cocktails", "Coeliac options", "Irish"], "address": "2 King St South, City Centre South", "rating": 3, "review_count": 32, "BusinessID": "Dub00500", "latitude": 53.3404655457, "website": "http://www.harrysonthegreen.ie/;", "city": "Dublin", "longitude": -6.26340723038}, {"name": "Foam Cafe restaurant", "category": ["Cafe"], "address": "24 Strand Street Great, Italian Quarter", "rating": 4, "review_count": 37, "BusinessID": "Dub00501", "latitude": 53.3469085693, "website": "", "city": "Dublin", "longitude": -6.26491641998}, {"name": "777 restaurant", "category": ["Mexican", "Tapas"], "address": "7 Castle House, South Great Georges Street, Dublin 2, City Centre South", "rating": 4, "review_count": 54, "BusinessID": "Dub00502", "latitude": 0.0, "website": "http://www.777.ie", "city": "Dublin", "longitude": 0.0}, {"name": "Burritos & Blues restaurant", "category": ["Casual Dining", "Cheap Eats", "Fast Food", "Healthy Eating", "Mexican", "Tex Mex"], "address": "2 Wexford Street, Dublin 2 , City Centre South", "rating": 4, "review_count": 62, "BusinessID": "Dub00503", "latitude": 53.337310791, "website": "http://burritos.ie/", "city": "Dublin", "longitude": -6.26563978195}, {"name": "Roasted Bean Coffee Company restaurant", "category": ["Cafe", "Casual Dining"], "address": "53b Talbot Street, City Centre North", "rating": 4, "review_count": 2, "BusinessID": "Dub00504", "latitude": 53.3513717651, "website": "", "city": "Dublin", "longitude": -6.25043916702}, {"name": "Saba restaurant", "category": ["Asian", "Asian Fusion", "Thai"], "address": "26-28 Clarendon Street, Dublin 2, City Centre South", "rating": 4, "review_count": 828, "BusinessID": "Dub00505", "latitude": 53.3410491943, "website": "http://www.sabadublin.com/", "city": "Dublin", "longitude": -6.26242208481}, {"name": "Lagoona Bar & Restaurant", "category": ["European"], "address": "Mayor Square, IFSC, IFSC", "rating": 3, "review_count": 21, "BusinessID": "Dub00506", "latitude": 53.3492584229, "website": "http://www.thesmithgroup.ie/lagoona/index.html", "city": "Dublin", "longitude": -6.24298095703}, {"name": "Cafe Manila restaurant", "category": ["Cheap Eats", "Filipino"], "address": "74 Middle Abbey Street, City Centre North", "rating": 3, "review_count": 23, "BusinessID": "Dub00507", "latitude": 53.3481292725, "website": "http://www.cafemanila.ie/index.html", "city": "Dublin", "longitude": -6.26057577133}, {"name": "Eddie Rockets (Wexford Street) restaurant", "category": ["American", "Cheap Eats"], "address": "Wexford Street, Dublin 2 , City Centre South", "rating": 3, "review_count": 16, "BusinessID": "Dub00508", "latitude": 53.3372535706, "website": "http://www.eddierockets.ie", "city": "Dublin", "longitude": -6.26549005508}, {"name": "The Chili Club restaurant", "category": ["Casual Dining", "Coeliac options", "Ethnic", "Girls Night Out", "Thai", "Vegetarian", "Wine Bar"], "address": "Anne's Lane, South Anne Street, Dublin 2, City Centre South", "rating": 3, "review_count": 137, "BusinessID": "Dub00509", "latitude": 53.3409194946, "website": "http://www.chiliclub.ie", "city": "Dublin", "longitude": -6.25971794128}, {"name": "Reflection - Caf\u00e9 Brasserie @ Dunnes Henry Street restaurant", "category": ["Brasserie", "Cafe"], "address": "Henry Street, Dublin 1, City Centre North", "rating": 4, "review_count": 13, "BusinessID": "Dub00510", "latitude": 53.3493881226, "website": "http://www.dunnesstores.ie/page.php?pid=99", "city": "Dublin", "longitude": -6.26260471344}, {"name": "The Grand Central Cafe Bar restaurant", "category": ["Pub Grub"], "address": "O'Connell Street, O'Connell St", "rating": 4, "review_count": 51, "BusinessID": "Dub00511", "latitude": 53.3482704163, "website": "http://www.grandcentral.ie/", "city": "Dublin", "longitude": -6.25926733017}, {"name": "The Grafton Lounge restaurant", "category": ["Casual Dining", "Cocktails"], "address": "Unit 2, Royal Hibernian Way, Dawson Street, City Centre South", "rating": 4, "review_count": 19, "BusinessID": "Dub00512", "latitude": 53.3425750732, "website": "http://www.thegraftonlounge.ie/", "city": "Dublin", "longitude": -6.25781106949}, {"name": "No.27 Bar & Lounge restaurant", "category": ["European"], "address": "The Shelbourne Hotel, 27 St Stephen's Green, Dublin 2, City Centre South", "rating": 4, "review_count": 5, "BusinessID": "Dub00513", "latitude": 53.3387908936, "website": "http://www.theshelbourne.ie", "city": "Dublin", "longitude": -6.25604915619}, {"name": "Chez Max (Baggot Street) restaurant", "category": ["Bistro", "Brasserie", "Brunch", "Cafe", "Casual Dining", "Cheap Eats", "Coeliac options", "English", "European", "Fine Dining", "Fish", "French", "Girls Night Out", "Healthy Eating", "International", "Mediterranean", "Seafood", "Steak", "Steak and Seafood", "Sunday Lunch", "Vegetarian", "Wine Bar"], "address": "133 Lower Baggot Street, Dublin 2 , City Centre South", "rating": 4, "review_count": 133, "BusinessID": "Dub00514", "latitude": 53.3375015259, "website": "http://www.chezmaxbaggotstreet.com", "city": "Dublin", "longitude": -6.25168180466}, {"name": "The Red Parrot restaurant", "category": ["Pub Grub"], "address": "57, Dorset Street Lower, City Centre North", "rating": 0, "review_count": 0, "BusinessID": "Dub00515", "latitude": 53.3581542969, "website": "", "city": "Dublin", "longitude": -6.26350736618}, {"name": "Cornucopia Whole Food and Vegetarian  Restaurant", "category": ["Cheap Eats", "Healthy Eating", "Vegetarian"], "address": "19/20 Wicklow Street, Dublin 2, City Centre South", "rating": 4, "review_count": 182, "BusinessID": "Dub00516", "latitude": 53.3430404663, "website": "http://www.cornucopia.ie", "city": "Dublin", "longitude": -6.26110219955}, {"name": "Flux Cafe Science Gallery restaurant", "category": ["Cafe", "European", "International", "Italian"], "address": "The Naughton Institute, Pearse Street, City Centre South", "rating": 0, "review_count": 0, "BusinessID": "Dub00517", "latitude": 0.0, "website": "http://sciencegallery.com/flux", "city": "Dublin", "longitude": 0.0}, {"name": "The Fryery Traditional Fish and Chips restaurant", "category": ["Casual Dining", "Fish", "Fish & Chips"], "address": "21 Usher's Quay, City Centre South", "rating": 5, "review_count": 1, "BusinessID": "Dub00518", "latitude": 0.0, "website": "", "city": "Dublin", "longitude": 0.0}, {"name": "Eastwood & Mays Deli & Cafe restaurant", "category": ["Bistro", "Brasserie", "Cafe", "International"], "address": "17 Stephen's Street Upper, Dublin 2, City Centre South", "rating": 5, "review_count": 7, "BusinessID": "Dub00519", "latitude": 53.3414916992, "website": "http://www.eastwoodandmays.ie", "city": "Dublin", "longitude": -6.26587152481}, {"name": "Oolong flower power tea shop restaurant", "category": ["Bakery"], "address": "4 Stephens Street Lower Dublin, Ireland, St Stephens Green", "rating": 0, "review_count": 0, "BusinessID": "Dub00520", "latitude": 53.3408851624, "website": "", "city": "Dublin", "longitude": -6.26772546768}, {"name": "7 (Seven) Social Restaurant", "category": ["Bistro", "Casual Dining", "Coeliac options", "Vegetarian"], "address": "76 Benburb Street, Smithfield, City Centre North", "rating": 3, "review_count": 19, "BusinessID": "Dub00521", "latitude": 53.3472900391, "website": "http://www.sevensocial.ie/", "city": "Dublin", "longitude": -6.28200340271}, {"name": "Bewley's Caf\u00e9 restaurant", "category": ["Cafe", "Casual Dining", "Cheap Eats", "European", "Irish", "Kid's Menu", "Mediterranean", "Pizzeria"], "address": "Grafton Street, Dublin 2, City Centre South", "rating": 4, "review_count": 49, "BusinessID": "Dub00522", "latitude": 53.3420181274, "website": "http://www.bewleys.com", "city": "Dublin", "longitude": -6.2599439621}, {"name": "The Bailey restaurant", "category": ["Gastro Pub", "Pub Grub"], "address": "Duke Street, City Centre South", "rating": 3, "review_count": 9, "BusinessID": "Dub00523", "latitude": 53.3419113159, "website": "http://www.baileybar.ie", "city": "Dublin", "longitude": -6.25874185562}, {"name": "VnV restaurant", "category": ["Brasserie", "Coeliac options", "European", "French", "Girls Night Out", "International"], "address": "Radisson Blu Royal Hotel, Golden Lane, Dublin 2, City Centre South", "rating": 4, "review_count": 55, "BusinessID": "Dub00524", "latitude": 53.3406906128, "website": "http://www.radissonblu.ie/royalhotel-dublin", "city": "Dublin", "longitude": -6.26845884323}, {"name": "Wallace's Taverna restaurant", "category": ["Italian"], "address": "24 Lower Ormond Quay, Dublin 1, City Centre, Italian Quarter", "rating": 4, "review_count": 91, "BusinessID": "Dub00525", "latitude": 53.3463516235, "website": "http://www.wallacewinebars.ie/", "city": "Dublin", "longitude": -6.26518249512}, {"name": "The Border Grill Restaurant  @ Break for the Border", "category": ["Casual Dining", "Gastro Pub", "Mexican", "Tex Mex"], "address": "2 Johnsons Place, Lower Stephen Street, City Centre South", "rating": 3, "review_count": 36, "BusinessID": "Dub00526", "latitude": 53.3409423828, "website": "http://www.capitalbars.com", "city": "Dublin", "longitude": -6.2637090683}, {"name": "Brewbaker Coffee Shop restaurant", "category": ["Bakery", "Breakfast", "Cafe", "Casual Dining", "Healthy Eating"], "address": "22 South Fredrick Street, City Centre South", "rating": 4, "review_count": 20, "BusinessID": "Dub00527", "latitude": 53.3421211243, "website": "", "city": "Dublin", "longitude": -6.25654220581}, {"name": "Coppinger Row restaurant", "category": ["Mediterranean"], "address": "Coppinger Row,  off South William St, Dublin 2, City Centre South", "rating": 4, "review_count": 138, "BusinessID": "Dub00528", "latitude": 53.341999054, "website": "http://coppingerrow.com/", "city": "Dublin", "longitude": -6.26198196411}, {"name": "The Mongolian Barbeque restaurant", "category": ["Mongolian"], "address": "7 Anglesea Street, Temple Bar, Dublin 2, City Centre South", "rating": 4, "review_count": 150, "BusinessID": "Dub00529", "latitude": 53.3451385498, "website": "http://www.mongolianbbq.ie", "city": "Dublin", "longitude": -6.26176691055}, {"name": "147 Deli restaurant", "category": ["Delicatessen", "Vegetarian"], "address": "147 Parnell Street, City Centre North", "rating": 3, "review_count": 2, "BusinessID": "Dub00530", "latitude": 53.3534736633, "website": "https://www.facebook.com/147deliparnell/", "city": "Dublin", "longitude": -6.25983762741}, {"name": "Fallon and Byrne restaurant", "category": ["Casual Dining", "Coeliac options", "European", "Girls Night Out", "International", "Irish", "Steak", "Vegetarian", "Wine Bar"], "address": "11-17 Exchequer Street, Dublin 2, City Centre South", "rating": 4, "review_count": 464, "BusinessID": "Dub00531", "latitude": 53.3429985046, "website": "http://www.fallonandbyrne.com", "city": "Dublin", "longitude": -6.2630648613}, {"name": "One Pico Restaurant", "category": ["Irish", "Organic"], "address": "5-6 Molesworth Place, Schoolhouse Lane, Dublin 2, City Centre South", "rating": 4, "review_count": 226, "BusinessID": "Dub00532", "latitude": 53.3411598206, "website": "http://www.onepico.com", "city": "Dublin", "longitude": -6.25687503815}, {"name": "The Cellar Restaurant ", "category": ["European", "Irish"], "address": "The Merrion Hotel, Upper Merrion Street, Dublin 2, City Centre South", "rating": 4, "review_count": 63, "BusinessID": "Dub00533", "latitude": 53.3390731812, "website": "http://www.merrionhotel.com", "city": "Dublin", "longitude": -6.25285148621}, {"name": "China House (Parnell Street) restaurant", "category": ["Cheap Eats", "Chinese"], "address": "180 Parnell Street, City Centre North", "rating": 4, "review_count": 46, "BusinessID": "Dub00534", "latitude": 53.3504753113, "website": "", "city": "Dublin", "longitude": -6.26688480377}, {"name": "Sufis Cafe restaurant", "category": ["Cheap Eats", "European"], "address": "45-50 Lower Stephen Street, City Centre South", "rating": 4, "review_count": 19, "BusinessID": "Dub00535", "latitude": 53.341342926, "website": "", "city": "Dublin", "longitude": -6.26443862915}, {"name": "Lemon (South William St) restaurant", "category": ["Cafe", "Cheap Eats"], "address": "66 South William St, Dublin 2, City Centre South", "rating": 4, "review_count": 46, "BusinessID": "Dub00536", "latitude": 53.3427391052, "website": "", "city": "Dublin", "longitude": -6.26194953918}, {"name": "YO Sushi Clarendon St restaurant", "category": ["Cheap Eats", "Healthy Eating", "Japanese", "Sushi"], "address": "Brown Thomas, Clarendon St, Dublin , City Centre South", "rating": 4, "review_count": 69, "BusinessID": "Dub00537", "latitude": 53.3427581787, "website": "http://www.yosushi.com", "city": "Dublin", "longitude": -6.26074314117}, {"name": "1st Floor DCF restaurant", "category": ["Casual Dining"], "address": "7 St Andrew Street, City Centre South", "rating": 3, "review_count": 2, "BusinessID": "Dub00538", "latitude": 53.3431816101, "website": "", "city": "Dublin", "longitude": -6.26191186905}, {"name": "Cafe Cairo - Dublin restaurant", "category": ["Egyptian", "European", "Irish"], "address": "Pearse Street, Dublin 2, City Centre South", "rating": 4, "review_count": 8, "BusinessID": "Dub00539", "latitude": 53.3438796997, "website": "http://www.trinitycapital-hotel.com", "city": "Dublin", "longitude": -6.24799013138}, {"name": "Stir Crazy Noodles restaurant", "category": ["Asian Fusion", "Cheap Eats", "Chinese", "Fast Food", "Healthy Eating", "Pan Asian", "Thai", "Vegetarian"], "address": "63 Dame Street, Dublin 2, City Centre South", "rating": 3, "review_count": 1, "BusinessID": "Dub00540", "latitude": 0.0, "website": "www.stircrazy.ie", "city": "Dublin", "longitude": 0.0}, {"name": "Sheries Cafe Bar restaurant", "category": ["Cafe"], "address": "3 Lower Abbey Street, City Centre North", "rating": 3, "review_count": 37, "BusinessID": "Dub00541", "latitude": 53.3485488892, "website": "", "city": "Dublin", "longitude": -6.25911712646}, {"name": "The Sideline Bistro restaurant", "category": ["European"], "address": "The Croke Park Hotel, Jones Road, City Centre North", "rating": 5, "review_count": 4, "BusinessID": "Dub00542", "latitude": 53.3613853455, "website": "http://www.doylecollection.com/restaurants/the_sideline_bistro.aspx", "city": "Dublin", "longitude": -6.25319480896}, {"name": "Pifko Bar and Grill restaurant", "category": ["Casual Dining", "Cocktails", "European", "Gastro Pub", "International", "Polish", "Pub Grub", "Seafood", "Steak", "Sunday Lunch", "Vegetarian"], "address": "41-43 Usher's Quay, City Centre South", "rating": 3, "review_count": 2, "BusinessID": "Dub00543", "latitude": 53.3456802368, "website": "http://www.pifkobar.com/", "city": "Dublin", "longitude": -6.27797222137}, {"name": "Noshington Cafe restaurant", "category": ["Cafe"], "address": "1A Washington Street, City Centre South", "rating": 4, "review_count": 23, "BusinessID": "Dub00544", "latitude": 53.3314323425, "website": "http://noshington.com/", "city": "Dublin", "longitude": -6.27967977524}, {"name": "The Octagon Bar restaurant", "category": ["American", "Cocktails", "Pub Grub"], "address": "The Clarence Hotel, 6-8 Wellington Quay, City Centre South", "rating": 0, "review_count": 0, "BusinessID": "Dub00545", "latitude": 0.0, "website": "http://www.theclarence.ie/octagonbar-dublin", "city": "Dublin", "longitude": 0.0}, {"name": "Charming Noodles restaurant", "category": ["Asian Fusion", "Cheap Eats", "Chinese"], "address": "105 Parnell Street, City Centre North", "rating": 4, "review_count": 88, "BusinessID": "Dub00546", "latitude": 53.353729248, "website": "http://www.charmingnoodles.ie/", "city": "Dublin", "longitude": -6.25860214233}, {"name": "Fortuna Sichaun Cuisine restaurant", "category": ["Asian", "Chinese"], "address": "102 Parnell Street,, City Centre North", "rating": 3, "review_count": 4, "BusinessID": "Dub00547", "latitude": 53.3536529541, "website": "", "city": "Dublin", "longitude": -6.25891256332}, {"name": "The Stag's Head restaurant", "category": ["Irish", "Pub Grub"], "address": "Dame Court, City Centre South", "rating": 5, "review_count": 1, "BusinessID": "Dub00548", "latitude": 53.3437232971, "website": "http://www.stagshead.ie", "city": "Dublin", "longitude": -6.26355886459}, {"name": "MV Cadhla restaurant", "category": ["European"], "address": "The Barge, Grand Canal, Charlemont Place Jetty, Dublin 4, City Centre South", "rating": 0, "review_count": 0, "BusinessID": "Dub00549", "latitude": 53.3441047668, "website": "", "city": "Dublin", "longitude": -6.26749372482}, {"name": "Munchies IFSC restaurant", "category": ["Cafe"], "address": "IFSC, Mayor Street, IFSC", "rating": 4, "review_count": 2, "BusinessID": "Dub00550", "latitude": 53.3503990173, "website": "www.munchies.ie", "city": "Dublin", "longitude": -6.25241374969}, {"name": "Mao Restaurant (Chatham Row)", "category": ["Asian", "Thai"], "address": "2-3 Chatham Row, Dublin 2, City Centre South", "rating": 4, "review_count": 204, "BusinessID": "Dub00551", "latitude": 53.3410491943, "website": "http://www.mymao.ie", "city": "Dublin", "longitude": -6.2626042366}, {"name": "Boojum (Kevin St) restaurant", "category": ["Mexican"], "address": "Unit 4 College Court, Kevin Street Lower, City Centre South", "rating": 4, "review_count": 2, "BusinessID": "Dub00552", "latitude": 53.3374557495, "website": "http://www.boojummex.com/", "city": "Dublin", "longitude": -6.26659917831}, {"name": "The Wine Bar at Dublin Wine Rooms restaurant", "category": ["Wine Bar"], "address": "Custom House Square, Dublin 1, City Centre, IFSC", "rating": 4, "review_count": 7, "BusinessID": "Dub00553", "latitude": 0.0, "website": "http://www.dublinwinerooms.com/wine_bar.php", "city": "Dublin", "longitude": 0.0}, {"name": "The Dawson Lounge restaurant", "category": ["Gastro Pub"], "address": "Dawson Street, Dawson Street", "rating": 3, "review_count": 1, "BusinessID": "Dub00554", "latitude": 53.3398017883, "website": "http://www.dawsonlounge.ie", "city": "Dublin", "longitude": -6.25870943069}, {"name": "Bite of Life restaurant", "category": ["Cafe"], "address": "55 Patrick st Dublin 8, City Centre South", "rating": 4, "review_count": 2, "BusinessID": "Dub00555", "latitude": 53.3402061462, "website": "http://www.biteoflife.com", "city": "Dublin", "longitude": -6.27233409882}, {"name": "Munchies Millenium restaurant", "category": ["Cafe"], "address": "Millenium Walkway, City Centre North", "rating": 4, "review_count": 1, "BusinessID": "Dub00556", "latitude": 53.3473358154, "website": "www.munchies.ie", "city": "Dublin", "longitude": -6.26525211334}, {"name": "My Meat Wagon restaurant", "category": ["BBQ", "Casual Dining", "Steak"], "address": "Smithfield Market Square, City Centre North", "rating": 0, "review_count": 0, "BusinessID": "Dub00557", "latitude": 0.0, "website": "http://mymeatwagon.wpengine.com/", "city": "Dublin", "longitude": 0.0}, {"name": "La Ruelle restaurant", "category": ["Wine Bar"], "address": "Joshua Lane, Dawson Street, Dublin 2, City Centre South", "rating": 4, "review_count": 2, "BusinessID": "Dub00558", "latitude": 0.0, "website": "http://laruelle.ie/home.php", "city": "Dublin", "longitude": 0.0}, {"name": "Wallace's Enoteca Delle Langhe restaurant", "category": ["Italian"], "address": "Blooms Lane, Italian Quarter, Italian Quarter", "rating": 4, "review_count": 53, "BusinessID": "Dub00559", "latitude": 53.3466262817, "website": "http://www.wallacewinebars.ie/", "city": "Dublin", "longitude": -6.26517343521}, {"name": "T.P. Smiths Bar & Restaurant", "category": ["Casual Dining", "Cheap Eats", "European", "Kid's Menu", "Pub Grub"], "address": "9-10 Jervis Street, City Centre North", "rating": 3, "review_count": 20, "BusinessID": "Dub00560", "latitude": 53.3474769592, "website": "http://www.thesmithgroup.ie/tpsmiths/index.html", "city": "Dublin", "longitude": -6.26596212387}, {"name": "M&L; Chinese Restaurant", "category": ["Asian", "Asian Fusion", "Cheap Eats", "Chinese", "Fast Food", "Fish", "Japanese", "Malaysian", "Seafood", "Sunday Lunch", "Vegetarian"], "address": "13-14 Cathedral Street, Dublin 1, O'Connell St", "rating": 4, "review_count": 31, "BusinessID": "Dub00561", "latitude": 53.3505210876, "website": "http://www.mlchineserestaurant.com/", "city": "Dublin", "longitude": -6.2595615387}, {"name": "Country Cafe restaurant", "category": ["Cafe", "Cheap Eats"], "address": "16 Ormond Quay Upper, City Centre North", "rating": 4, "review_count": 6, "BusinessID": "Dub00562", "latitude": 53.3456802368, "website": "", "city": "Dublin", "longitude": -6.27051115036}, {"name": "The Winding Stair Restaurant", "category": ["Casual Dining", "Irish"], "address": "40 Lower Ormond Quay, Dublin 1 , City Centre North", "rating": 4, "review_count": 351, "BusinessID": "Dub00563", "latitude": 53.3464317322, "website": "http://www.winding-stair.com/", "city": "Dublin", "longitude": -6.26473903656}, {"name": "The Mercantile restaurant", "category": ["Cheap Eats", "Pub Grub"], "address": "Dame Street, City Centre South", "rating": 3, "review_count": 14, "BusinessID": "Dub00564", "latitude": 53.3441581726, "website": "http://www.mercantilehotel.ie/", "city": "Dublin", "longitude": -6.26308679581}, {"name": "Belvedere Bar & Grill Restaurant", "category": ["European", "Pub Grub"], "address": "Belvedrere Hotel, Great Denmark Street, City Centre North", "rating": 0, "review_count": 0, "BusinessID": "Dub00565", "latitude": 53.355430603, "website": "http://www.thebar.ie", "city": "Dublin", "longitude": -6.2618637085}, {"name": "Cafe Kylemore - O\u2019Connell Street restaurant", "category": ["Cafe", "Casual Dining"], "address": "O\u2019Connell Street, City Centre North", "rating": 3, "review_count": 8, "BusinessID": "Dub00566", "latitude": 53.349445343, "website": "", "city": "Dublin", "longitude": -6.26027774811}, {"name": "Francescas Restaurant", "category": ["Cocktails", "European", "Irish", "Seafood", "Steak", "Steak and Seafood", "Sunday Lunch", "Vegetarian"], "address": "Brooks Hotel 59-62 Drury Street, Dublin 2, City Centre South", "rating": 4, "review_count": 12, "BusinessID": "Dub00567", "latitude": 53.3415298462, "website": "http://www.brookshotel.ie/", "city": "Dublin", "longitude": -6.26368808746}, {"name": "Musashi Noodles and Sushi Bar restaurant", "category": ["Sushi"], "address": "15 Capel Street, Dublin 1 , City Centre North", "rating": 5, "review_count": 47, "BusinessID": "Dub00568", "latitude": 0.0, "website": "http://musashidublin.com/index.php", "city": "Dublin", "longitude": 0.0}, {"name": "Brambles @ National Museum restaurant", "category": ["Bakery", "Brunch", "Cafe"], "address": "Kildare Street, City Centre South", "rating": 0, "review_count": 0, "BusinessID": "Dub00569", "latitude": 0.0, "website": "http://www.museum.ie/en/info/eating-national-museum-ireland-archaeology.aspx", "city": "Dublin", "longitude": 0.0}, {"name": "The Bleeding Horse restaurant", "category": ["Cheap Eats", "Gastro Pub", "Pub Grub"], "address": "24 Camden Street Upper, Camden Street", "rating": 4, "review_count": 22, "BusinessID": "Dub00570", "latitude": 53.333530426, "website": "http://bleedinghorse.ie/", "city": "Dublin", "longitude": -6.2647819519}]